entry_id,name,specialty,degree,experience,experience_years,consultation_fee,rating,bangalore_location,latitude,longitude,google_maps_link,coordinates,location_index,source_url,scraped_at,scraping_session,created_at,updated_at
1,Ravishankar Reddy C R,general-physician,"MBBS, MD - General Medicine",32 Years Experience Overall,32,1000,4.0,Koramangala,12.92547,77.63599,"http://www.google.com/maps/place/12.92547,77.63599","12.92547,77.63599",1,https://www.practo.com/bangalore/doctor/dr-ravishankar-reddy-c-r-diabetologist,2025-09-04T22:37:02.749825,20250904_223645,2025-09-05 08:35:42,2025-09-05 08:35:42
2,Vasanthakumar R.S,general-physician,"MBBS, MD - General Medicine, DM - Nephrology",45 Years Experience Overall  (33 years as specialist),45,740,3.5,Banaswadi,12.9878536,77.571869,"http://www.google.com/maps/place/12.9878536,77.571869","12.9878536,77.571869",1,https://www.practo.com/bangalore/doctor/dr-vasanthakumar-r-s-general-practitioner,2025-09-04T22:37:10.558563,20250904_223645,2025-09-05 08:35:42,2025-09-05 08:35:42
3,Vasanthakumar R.S,general-physician,"MBBS, MD - General Medicine, DM - Nephrology",45 Years Experience Overall  (33 years as specialist),45,740,3.5,Banaswadi,12.936327765036,77.584438025951,"http://www.google.com/maps/place/12.936327765036,77.584438025951","12.936327765036,77.584438025951",2,https://www.practo.com/bangalore/doctor/dr-vasanthakumar-r-s-general-practitioner,2025-09-04T22:37:10.558563,20250904_223645,2025-09-05 08:35:42,2025-09-05 08:35:42
4,Chikkalingaiah,general-physician,"MD - General Medicine, MBBS",46 Years Experience Overall  (30 years as specialist),46,600,3.5,Hebbal,13.058595664151529,77.58485242724419,"http://www.google.com/maps/place/13.058595664151527,77.58485242724419","13.058595664151527,77.58485242724419",1,https://www.practo.com/bangalore/doctor/dr-dr-chikkalingaiah-general-medicine,2025-09-04T22:37:18.285288,20250904_223645,2025-09-05 08:35:42,2025-09-05 08:35:42
5,Gaikwad Pandit.A,general-physician,"MBBS, Diploma in Child Health (DCH)",23 Years Experience Overall,23,800,3.5,Bangalore,13.058595664151529,77.58485242724419,"http://www.google.com/maps/place/13.058595664151527,77.58485242724419","13.058595664151527,77.58485242724419",1,https://www.practo.com/bangalore/doctor/dr-gaikwad-pandit-a,2025-09-04T22:37:25.289259,20250904_223645,2025-09-05 08:35:42,2025-09-05 08:35:42
6,M Sri Sai Prasad,general-physician,"MBBS, MD - General Medicine",29 Years Experience Overall,29,650,5.0,Bangalore,13.005052,77.7570342,"http://www.google.com/maps/place/13.005052,77.7570342","13.005052,77.7570342",1,https://www.practo.com/bangalore/doctor/dr-m-sri-sai-prasad-general-physician-1,2025-09-04T22:37:30.117936,20250904_223645,2025-09-05 08:35:42,2025-09-05 08:35:42
7,Kalaivani,general-physician,"MBBS, MD - General Medicine",26 Years Experience Overall  (22 years as specialist),26,800,4.5,HSR Layout,12.923978621392791,77.64819118833974,"http://www.google.com/maps/place/12.923978621392793,77.64819118833974","12.923978621392793,77.64819118833974",1,https://www.practo.com/bangalore/doctor/dr-kalaivani-cardiologist,2025-09-04T22:37:37.908866,20250904_223645,2025-09-05 08:35:42,2025-09-05 08:35:42
8,Harish K V,general-physician,"MBBS, MD - General Medicine",29 Years Experience Overall,29,1000,5.0,Richmond Town,12.966053,77.609366,"http://www.google.com/maps/place/12.966053,77.609366","12.966053,77.609366",1,https://www.practo.com/bangalore/doctor/dr-harish-k-v-diabetologist,2025-09-04T22:37:44.973931,20250904_223645,2025-09-05 08:35:42,2025-09-05 08:35:42
9,Vasudha Paul,general-physician,"MD - General Medicine, MBBS",17 Years Experience Overall  (10 years as specialist),17,900,4.2,Bangalore,12.836213655473,77.698868580817,"http://www.google.com/maps/place/12.836213655473,77.698868580817","12.836213655473,77.698868580817",1,https://www.practo.com/bangalore/doctor/vasudha-paul-general-physician,2025-09-04T22:37:52.124669,20250904_223645,2025-09-05 08:35:42,2025-09-05 08:35:42
10,Vasudha Paul,general-physician,"MD - General Medicine, MBBS",17 Years Experience Overall  (10 years as specialist),17,900,4.2,Bangalore,12.835339746435,77.693793672211,"http://www.google.com/maps/place/12.835339746435,77.693793672211","12.835339746435,77.693793672211",2,https://www.practo.com/bangalore/doctor/vasudha-paul-general-physician,2025-09-04T22:37:52.124669,20250904_223645,2025-09-05 08:35:42,2025-09-05 08:35:42
11,Pradeep C,general-physician,"MBBS, MD - General Medicine",22 Years Experience Overall,22,600,3.5,KR Puram,13.0160183,77.7007569,"http://www.google.com/maps/place/13.0160183,77.7007569","13.0160183,77.7007569",1,https://www.practo.com/bangalore/doctor/dr-pradeep-c-1-general-surgeon,2025-09-04T22:37:58.142947,20250904_223645,2025-09-05 08:35:42,2025-09-05 08:35:42
12,Raghu B M,general-physician,"MBBS, DNB - General Medicine, DNB - Gastroenterology",19 Years Experience Overall  (8 years as specialist),19,950,4.5,Hebbal,13.054552010758,77.591893828697,"http://www.google.com/maps/place/13.054552010758,77.591893828697","13.054552010758,77.591893828697",1,https://www.practo.com/bangalore/doctor/dr-raghu-b-m-gastroenterologist,2025-09-04T22:38:05.165344,20250904_223645,2025-09-05 08:35:42,2025-09-05 08:35:42
13,Raghu B M,general-physician,"MBBS, DNB - General Medicine, DNB - Gastroenterology",19 Years Experience Overall  (8 years as specialist),19,950,4.5,Hebbal,13.0950791,77.5159871,"http://www.google.com/maps/place/13.0950791,77.5159871","13.0950791,77.5159871",2,https://www.practo.com/bangalore/doctor/dr-raghu-b-m-gastroenterologist,2025-09-04T22:38:05.165344,20250904_223645,2025-09-05 08:35:42,2025-09-05 08:35:42
14,Raghu B M,general-physician,"MBBS, DNB - General Medicine, DNB - Gastroenterology",19 Years Experience Overall  (8 years as specialist),19,950,4.5,Hebbal,13.102823585804376,77.58451581001282,"http://www.google.com/maps/place/13.102823585804375,77.58451581001282","13.102823585804375,77.58451581001282",3,https://www.practo.com/bangalore/doctor/dr-raghu-b-m-gastroenterologist,2025-09-04T22:38:05.165344,20250904_223645,2025-09-05 08:35:42,2025-09-05 08:35:42
15,Huzefa Suratwala  Ismail,general-physician,"MBBS, DNB, DNB - General Medicine, Diploma Tuberculosis Chest Diseases (DTCD)",27 Years Experience Overall  (18 years as specialist),27,700,4.5,Bangalore,12.923978621392791,77.64819118833974,"http://www.google.com/maps/place/12.923978621392793,77.64819118833974","12.923978621392793,77.64819118833974",1,https://www.practo.com/bangalore/doctor/dr-huzefa-general-physician-1,2025-09-04T22:38:18.986545,20250904_223645,2025-09-05 08:35:42,2025-09-05 08:35:42
16,Huzefa Suratwala  Ismail,general-physician,"MBBS, DNB, DNB - General Medicine, Diploma Tuberculosis Chest Diseases (DTCD)",27 Years Experience Overall  (18 years as specialist),27,700,4.5,Bangalore,12.887798276071,77.651156757018,"http://www.google.com/maps/place/12.887798276071,77.651156757018","12.887798276071,77.651156757018",2,https://www.practo.com/bangalore/doctor/dr-huzefa-general-physician-1,2025-09-04T22:38:18.986545,20250904_223645,2025-09-05 08:35:42,2025-09-05 08:35:42
17,Huzefa Suratwala  Ismail,general-physician,"MBBS, DNB, DNB - General Medicine, Diploma Tuberculosis Chest Diseases (DTCD)",27 Years Experience Overall  (18 years as specialist),27,700,4.5,Bangalore,12.9203135,77.651483,"http://www.google.com/maps/place/12.9203135,77.651483","12.9203135,77.651483",3,https://www.practo.com/bangalore/doctor/dr-huzefa-general-physician-1,2025-09-04T22:38:18.986545,20250904_223645,2025-09-05 08:35:42,2025-09-05 08:35:42
18,Anitha M Dias,general-physician,"MBBS, MD - General Medicine",33 Years Experience Overall  (28 years as specialist),33,1000,3.5,Bangalore,12.95959,77.64937,"http://www.google.com/maps/place/12.95959,77.64937","12.95959,77.64937",1,https://www.practo.com/bangalore/doctor/dr-anitha-m-dias-internal-medicine,2025-09-04T22:38:25.844716,20250904_223645,2025-09-05 08:35:42,2025-09-05 08:35:42
19,Shilpa Singi,general-physician,"DNB - General Medicine, MBBS",26 Years Experience Overall  (19 years as specialist),26,650,4.0,Marathahalli,12.956102314138018,77.7112604,"http://www.google.com/maps/place/12.956102314138018,77.7112604","12.956102314138018,77.7112604",1,https://www.practo.com/bangalore/doctor/dr-shilpa-singi-general-physician,2025-09-04T22:38:33.320519,20250904_223645,2025-09-05 08:35:42,2025-09-05 08:35:42
20,Prakash G K,general-physician,"MBBS, MD - General Medicine",50 Years Experience Overall  (44 years as specialist),50,700,4.5,Kasturi Nagar,13.010432635310371,77.65827119350433,"http://www.google.com/maps/place/13.010432635310373,77.65827119350433","13.010432635310373,77.65827119350433",1,https://www.practo.com/bangalore/doctor/prakash-g-k-general-physician,2025-09-04T22:38:41.136636,20250904_223645,2025-09-05 08:35:42,2025-09-05 08:35:42
21,Mahanthagouda Earanna,general-physician,"MBBS, MD - General Medicine, Fellowship in Gastroenterology",17 Years Experience Overall  (12 years as specialist),17,600,4.5,Bangalore,12.977088176803148,77.60396075209428,"http://www.google.com/maps/place/12.977088176803148,77.60396075209428","12.977088176803148,77.60396075209428",1,https://www.practo.com/bangalore/doctor/dr-earanna-general-physician,2025-09-04T22:38:46.890740,20250904_223645,2025-09-05 08:35:42,2025-09-05 08:35:42
22,Srinath A,general-physician,"MBBS, MRCP (UK), MD - General Medicine, CCT - Endocrinology and Diabetes Mellitus",32 Years Experience Overall  (10 years as specialist),32,700,4.5,Bangalore,12.90287,77.4978,"http://www.google.com/maps/place/12.90287,77.4978","12.90287,77.4978",1,https://www.practo.com/bangalore/doctor/dr-srinath-a-endocrinologist-3-endocrinologist,2025-09-04T22:38:53.530670,20250904_223645,2025-09-05 08:35:42,2025-09-05 08:35:42
23,Srinath A,general-physician,"MBBS, MRCP (UK), MD - General Medicine, CCT - Endocrinology and Diabetes Mellitus",32 Years Experience Overall  (10 years as specialist),32,700,4.5,Bangalore,12.943923,77.489934,"http://www.google.com/maps/place/12.943923,77.489934","12.943923,77.489934",2,https://www.practo.com/bangalore/doctor/dr-srinath-a-endocrinologist-3-endocrinologist,2025-09-04T22:38:53.530670,20250904_223645,2025-09-05 08:35:42,2025-09-05 08:35:42
24,Deviprasad Hegde,general-physician,"MBBS, MD - General Medicine",30 Years Experience Overall  (23 years as specialist),30,700,4.0,Bangalore,12.854521,77.662519,"http://www.google.com/maps/place/12.854521,77.662519","12.854521,77.662519",1,https://www.practo.com/bangalore/doctor/deviprasad-hegde-general-physician,2025-09-04T22:38:57.771169,20250904_223645,2025-09-05 08:35:42,2025-09-05 08:35:42
25,Vinay Hosadurga,general-physician,"MBBS, MD - General Medicine",18 Years Experience Overall  (13 years as specialist),18,950,4.0,Bangalore,12.904012,77.560366,"http://www.google.com/maps/place/12.904012,77.560366","12.904012,77.560366",1,https://www.practo.com/bangalore/doctor/dr-vinay-hosadurga-general-medicine,2025-09-04T22:39:05.136068,20250904_223645,2025-09-05 08:35:42,2025-09-05 08:35:42
26,Ramesh Dalwai,general-physician,"MBBS, FRCS - General Surgery",22 Years Experience Overall,22,800,4.5,HSR Layout,12.916126234147,77.630543595879,"http://www.google.com/maps/place/12.916126234147,77.630543595879","12.916126234147,77.630543595879",1,https://www.practo.com/bangalore/doctor/ramesh-dalwai-spine-surgeon,2025-09-04T22:39:09.728349,20250904_223645,2025-09-05 08:35:42,2025-09-05 08:35:42
27,Nithin Prakash,general-physician,MBBS,22 Years Experience Overall,22,700,5.0,JP Nagar,13.034495771359,77.629196811005,"http://www.google.com/maps/place/13.034495771359,77.629196811005","13.034495771359,77.629196811005",1,https://www.practo.com/bangalore/doctor/dr-nithin-prakash-cardiologist,2025-09-04T22:39:17.636337,20250904_223645,2025-09-05 08:35:42,2025-09-05 08:35:42
28,Shalini Rajesh,general-physician,MBBS,31 Years Experience Overall,31,750,5.0,Bangalore,12.883429359113,77.550292854957,"http://www.google.com/maps/place/12.883429359113,77.550292854957","12.883429359113,77.550292854957",1,https://www.practo.com/bangalore/doctor/dr-shalini-rajesh-endocrinologist,2025-09-04T22:39:22.655205,20250904_223645,2025-09-05 08:35:42,2025-09-05 08:35:42
29,Divya T K,general-physician,"MBBS, DNB - Family Medicine",16 Years Experience Overall  (9 years as specialist),16,700,4.5,Bangalore,12.977088176803148,77.60396075209428,"http://www.google.com/maps/place/12.977088176803148,77.60396075209428","12.977088176803148,77.60396075209428",1,https://www.practo.com/bangalore/doctor/dr-divya-t-k-family-physician,2025-09-04T22:39:30.954738,20250904_223645,2025-09-05 08:35:42,2025-09-05 08:35:42
30,Raja Selvarajan,general-physician,"MBBS, MD - Internal Medicine,  FRCP",19 Years Experience Overall  (14 years as specialist),19,750,4.5,Domlur,12.96627792131,77.636577234278,"http://www.google.com/maps/place/12.96627792131,77.636577234278","12.96627792131,77.636577234278",1,https://www.practo.com/bangalore/doctor/dr-raja-selvarajan-diabetologist,2025-09-04T22:39:36.341157,20250904_223645,2025-09-05 08:35:42,2025-09-05 08:35:42
31,Suresh C H,general-physician,"MBBS, MD - General Medicine",15 Years Experience Overall  (11 years as specialist),15,600,5.0,Bangalore,12.871254218489,77.616687091147,"http://www.google.com/maps/place/12.871254218489,77.616687091147","12.871254218489,77.616687091147",1,https://www.practo.com/bangalore/doctor/dr-suresh-c-h-internal-medicine,2025-09-04T22:39:42.772952,20250904_223645,2025-09-05 08:35:42,2025-09-05 08:35:42
32,Jahnavi Daram,general-physician,MBBS,16 Years Experience Overall,16,1000,5.0,Bangalore,12.9912,77.7232,"http://www.google.com/maps/place/12.9912,77.7232","12.9912,77.7232",1,https://www.practo.com/bangalore/doctor/dr-jahnavi-daram-general-physician,2025-09-04T22:39:48.292473,20250904_223645,2025-09-05 08:35:42,2025-09-05 08:35:42
33,Divya Kiran S,general-physician,"MBBS, MD - General Medicine",16 Years Experience Overall,16,750,4.5,Malleswaram,12.993238,77.576277,"http://www.google.com/maps/place/12.993238,77.576277","12.993238,77.576277",1,https://www.practo.com/bangalore/doctor/dr-divya-kiran-s-general-physician,2025-09-04T22:39:54.827752,20250904_223645,2025-09-05 08:35:42,2025-09-05 08:35:42
34,Tejas Suresh Rao,general-physician,"MBBS, MD - General Medicine",15 Years Experience Overall  (12 years as specialist),15,950,4.5,Bangalore,13.01418,77.55595,"http://www.google.com/maps/place/13.01418,77.55595","13.01418,77.55595",1,https://www.practo.com/bangalore/doctor/tejas-suresh-rao-general-physician,2025-09-04T22:40:00.658709,20250904_223645,2025-09-05 08:35:42,2025-09-05 08:35:42
35,Abdul Majid,general-physician,MBBS,48 Years Experience Overall,48,1000,4.5,Jayanagar,13.01418,77.55595,"http://www.google.com/maps/place/13.01418,77.55595","13.01418,77.55595",1,https://www.practo.com/bangalore/doctor/dr-abdul-majid-dermatologist-cosmetologist,2025-09-04T22:40:07.142761,20250904_223645,2025-09-05 08:35:42,2025-09-05 08:35:42
36,Pooja Balaji,general-physician,"MBBS, DNB - Family Medicine",29 Years Experience Overall,29,700,4.5,Indiranagar,12.97847,77.63751,"http://www.google.com/maps/place/12.97847,77.63751","12.97847,77.63751",1,https://www.practo.com/bangalore/doctor/dr-pooja-general-physician,2025-09-04T22:40:14.786850,20250904_223645,2025-09-05 08:35:42,2025-09-05 08:35:42
37,N Praveen Kumar,general-physician,"MBBS, MD - General Medicine, Fellowship in Non-Invasive Cardiology (FIC)",18 Years Experience Overall,18,500,4.0,Yelahanka,13.09958,77.58133,"http://www.google.com/maps/place/13.09958,77.58133","13.09958,77.58133",1,https://www.practo.com/bangalore/doctor/dr-n-praveen-kumar-cardiologist,2025-09-04T22:40:21.798009,20250904_223645,2025-09-05 08:35:42,2025-09-05 08:35:42
38,Prashant Dinesh,general-physician,MBBS,23 Years Experience Overall,23,700,4.5,Ulsoor,12.974771239196,77.618365205281,"http://www.google.com/maps/place/12.974771239196,77.618365205281","12.974771239196,77.618365205281",1,https://www.practo.com/bangalore/doctor/prashant-dinesh-general-physician,2025-09-04T22:40:38.048293,20250904_223645,2025-09-05 08:35:42,2025-09-05 08:35:42
39,Leelamohan PVR,general-physician,"MBBS, MD - General Medicine",16 Years Experience Overall  (10 years as specialist),16,750,3.5,HSR Layout,12.9078713,77.6518865,"http://www.google.com/maps/place/12.9078713,77.6518865","12.9078713,77.6518865",1,https://www.practo.com/bangalore/doctor/leelamohan-pvr-gynecologist-obstetrician,2025-09-04T22:40:43.426641,20250904_223645,2025-09-05 08:35:42,2025-09-05 08:35:42
40,Pratyush M,general-physician,"MBBS, MD - General Medicine",17 Years Experience Overall  (11 years as specialist),17,850,4.0,Jayanagar,12.9281467,77.5970283,"http://www.google.com/maps/place/12.9281467,77.5970283","12.9281467,77.5970283",1,https://www.practo.com/bangalore/doctor/dr-pratyush-miglani-internal-medicine,2025-09-04T22:40:49.304935,20250904_223645,2025-09-05 08:35:42,2025-09-05 08:35:42
41,Diptee,general-physician,MBBS,10 Years Experience Overall,10,500,4.5,Bannerghatta Road,12.867943798133,77.597825936973,"http://www.google.com/maps/place/12.867943798133,77.597825936973","12.867943798133,77.597825936973",1,https://www.practo.com/bangalore/doctor/dr-diptee-general-physician,2025-09-04T22:40:56.414149,20250904_223645,2025-09-05 08:35:42,2025-09-05 08:35:42
42,Diptee,general-physician,MBBS,10 Years Experience Overall,10,500,4.5,Bannerghatta Road,12.864037529777129,77.61711807116437,"http://www.google.com/maps/place/12.864037529777127,77.61711807116437","12.864037529777127,77.61711807116437",2,https://www.practo.com/bangalore/doctor/dr-diptee-general-physician,2025-09-04T22:40:56.414149,20250904_223645,2025-09-05 08:35:42,2025-09-05 08:35:42
43,Preeti Gupta,general-physician,MBBS,32 Years Experience Overall,32,700,4.0,Bellandur,12.926312,77.67652,"http://www.google.com/maps/place/12.926312,77.67652","12.926312,77.67652",1,https://www.practo.com/bangalore/doctor/dr-preeti-gupta-general-physician-2,2025-09-04T22:41:00.961307,20250904_223645,2025-09-05 08:35:42,2025-09-05 08:35:42
44,Shivaprasad C,general-physician,"MBBS, MD - General Medicine",32 Years Experience Overall  (23 years as specialist),32,700,5.0,BTM Layout,12.916280807224265,77.60417103767395,"http://www.google.com/maps/place/12.916280807224265,77.60417103767395","12.916280807224265,77.60417103767395",1,https://www.practo.com/bangalore/doctor/shivaprasad-c-general-physician,2025-09-04T22:41:06.996585,20250904_223645,2025-09-05 08:35:42,2025-09-05 08:35:42
45,Lokesh S,general-physician,"MBBS, MD - General Medicine",15 Years Experience Overall  (14 years as specialist),15,300,4.2,Bangalore,12.862434018935,77.767876285309,"http://www.google.com/maps/place/12.862434018935,77.767876285309","12.862434018935,77.767876285309",1,https://www.practo.com/bangalore/doctor/dr-lokesh-s-internal-medicine,2025-09-04T22:41:14.396376,20250904_223645,2025-09-05 08:35:42,2025-09-05 08:35:42
46,Ashok.M.L,general-physician,"MBBS, MD - General Medicine",34 Years Experience Overall,34,750,3.5,Banashankari,12.936327765036,77.584438025951,"http://www.google.com/maps/place/12.936327765036,77.584438025951","12.936327765036,77.584438025951",1,https://www.practo.com/bangalore/doctor/dr-ashok-m-l-1-diabetologist,2025-09-04T22:41:19.756648,20250904_223645,2025-09-05 08:35:42,2025-09-05 08:35:42
47,Tejeswini Deepak,general-physician,"MBBS, MD - General Medicine",28 Years Experience Overall,28,1000,4.0,BTM Layout,12.93386,77.62023,"http://www.google.com/maps/place/12.93386,77.62023","12.93386,77.62023",1,https://www.practo.com/bangalore/doctor/dr-tejeswini-deepak-diabetologist,2025-09-04T22:41:26.772756,20250904_223645,2025-09-05 08:35:42,2025-09-05 08:35:42
48,Dwijendra Prasad,general-physician,"MD - General Medicine, MBBS",24 Years Experience Overall  (21 years as specialist),24,850,4.0,Jayanagar,12.9281467,77.5970283,"http://www.google.com/maps/place/12.9281467,77.5970283","12.9281467,77.5970283",1,https://www.practo.com/bangalore/doctor/dwijendra-prasad-diabetologist,2025-09-04T22:41:33.622359,20250904_223645,2025-09-05 08:35:42,2025-09-05 08:35:42
49,Kavya Perla,general-physician,"MBBS, DNB - General Medicine",10 Years Experience Overall  (4 years as specialist),10,850,4.0,Whitefield,12.95825,77.74538,"http://www.google.com/maps/place/12.95825,77.74538","12.95825,77.74538",1,https://www.practo.com/bangalore/doctor/kavya-perla-general-physician,2025-09-04T22:41:49.942221,20250904_223645,2025-09-05 08:35:42,2025-09-05 08:35:42
50,Aswathy Mary James,general-physician,"MBBS, DNB - General Medicine",24 Years Experience Overall  (12 years as specialist),24,750,3.5,Jayanagar,12.936327765036,77.584438025951,"http://www.google.com/maps/place/12.936327765036,77.584438025951","12.936327765036,77.584438025951",1,https://www.practo.com/bangalore/doctor/aswathy-mary-james-internal-medicine,2025-09-04T22:41:56.720486,20250904_223645,2025-09-05 08:35:42,2025-09-05 08:35:42
51,Sneha Savanur,general-physician,"MBBS, MD - General Medicine",13 Years Experience Overall  (9 years as specialist),13,500,4.0,Bangalore,12.858992687313,77.611912228167,"http://www.google.com/maps/place/12.858992687313,77.611912228167","12.858992687313,77.611912228167",1,https://www.practo.com/bangalore/doctor/dr-sneha-savanur-general-physician,2025-09-04T22:42:01.828532,20250904_223645,2025-09-05 08:35:42,2025-09-05 08:35:42
52,Rupashree S P,general-physician,"MBBS, DNB - General Medicine",34 Years Experience Overall  (27 years as specialist),34,800,4.0,Koramangala,12.93386,77.62023,"http://www.google.com/maps/place/12.93386,77.62023","12.93386,77.62023",1,https://www.practo.com/bangalore/doctor/dr-rupashree-general-physician,2025-09-04T22:42:08.007583,20250904_223645,2025-09-05 08:35:42,2025-09-05 08:35:42
53,Rajendra Prasad,general-physician,"MD - General Medicine, MBBS",38 Years Experience Overall  (37 years as specialist),38,800,3.5,Indiranagar,12.965645950024369,77.64177174634308,"http://www.google.com/maps/place/12.965645950024369,77.64177174634308","12.965645950024369,77.64177174634308",1,https://www.practo.com/bangalore/doctor/dr-rajendra-prasad-1-internal-medicine,2025-09-04T22:42:12.910643,20250904_223645,2025-09-05 08:35:42,2025-09-05 08:35:42
54,Rajendra Prasad,general-physician,"MD - General Medicine, MBBS",38 Years Experience Overall  (37 years as specialist),38,800,3.5,Indiranagar,12.93393,77.61605,"http://www.google.com/maps/place/12.93393,77.61605","12.93393,77.61605",2,https://www.practo.com/bangalore/doctor/dr-rajendra-prasad-1-internal-medicine,2025-09-04T22:42:12.910643,20250904_223645,2025-09-05 08:35:42,2025-09-05 08:35:42
55,Rajendra Prasad,general-physician,"MD - General Medicine, MBBS",38 Years Experience Overall  (37 years as specialist),38,800,3.5,Indiranagar,12.956031,77.717035,"http://www.google.com/maps/place/12.956031,77.717035","12.956031,77.717035",3,https://www.practo.com/bangalore/doctor/dr-rajendra-prasad-1-internal-medicine,2025-09-04T22:42:12.910643,20250904_223645,2025-09-05 08:35:42,2025-09-05 08:35:42
56,Pradeep Hosamani,general-physician,"MBBS, MS - ENT, DNB - ENT",24 Years Experience Overall  (16 years as specialist),24,740,3.5,Seshadripuram,12.9878536,77.571869,"http://www.google.com/maps/place/12.9878536,77.571869","12.9878536,77.571869",1,https://www.practo.com/bangalore/doctor/pradeep-hosamani-ear-nose-throat-ent-specialist,2025-09-04T22:42:18.215589,20250904_223645,2025-09-05 08:35:42,2025-09-05 08:35:42
57,Pradeep Hosamani,general-physician,"MBBS, MS - ENT, DNB - ENT",24 Years Experience Overall  (16 years as specialist),24,740,3.5,Seshadripuram,12.89666,77.59855,"http://www.google.com/maps/place/12.89666,77.59855","12.89666,77.59855",2,https://www.practo.com/bangalore/doctor/pradeep-hosamani-ear-nose-throat-ent-specialist,2025-09-04T22:42:18.215589,20250904_223645,2025-09-05 08:35:42,2025-09-05 08:35:42
58,Balakrishna GK,general-physician,"MBBS, MD - General Medicine",39 Years Experience Overall  (32 years as specialist),39,400,4.5,Bangalore,12.90287,77.4978,"http://www.google.com/maps/place/12.90287,77.4978","12.90287,77.4978",1,https://www.practo.com/bangalore/doctor/dr-balakrisna-gk-internal-medicine,2025-09-04T22:42:23.175199,20250904_223645,2025-09-05 08:35:42,2025-09-05 08:35:42
59,Aravind G. M.,general-physician,"MBBS, DNB - General Medicine, doctor through the doctor's profile on Practo",24 Years Experience Overall  (23 years as specialist),24,750,4.5,Jayanagar,12.9172099,77.5919161,"http://www.google.com/maps/place/12.9172099,77.5919161","12.9172099,77.5919161",1,https://www.practo.com/bangalore/doctor/dr-aravind-g-m-internal-medicine,2025-09-04T22:42:30.340240,20250904_223645,2025-09-05 08:35:42,2025-09-05 08:35:42
60,Aravind G. M.,general-physician,"MBBS, DNB - General Medicine, doctor through the doctor's profile on Practo",24 Years Experience Overall  (23 years as specialist),24,750,4.5,Jayanagar,12.8633898,77.6135936,"http://www.google.com/maps/place/12.8633898,77.6135936","12.8633898,77.6135936",2,https://www.practo.com/bangalore/doctor/dr-aravind-g-m-internal-medicine,2025-09-04T22:42:30.340240,20250904_223645,2025-09-05 08:35:42,2025-09-05 08:35:42
61,Vinay D,general-physician,"MD - Internal Medicine, MBBS, FNB - Infectious Disease",18 Years Experience Overall  (17 years as specialist),18,1000,3.5,Bannerghatta Road,12.89666,77.59855,"http://www.google.com/maps/place/12.89666,77.59855","12.89666,77.59855",1,https://www.practo.com/bangalore/doctor/dr-vinay-d-1-infectious-diseases-physician,2025-09-04T22:42:35.634020,20250904_223645,2025-09-05 08:35:42,2025-09-05 08:35:42
62,Vinay D,general-physician,"MD - Internal Medicine, MBBS, FNB - Infectious Disease",18 Years Experience Overall  (17 years as specialist),18,1000,3.5,Bannerghatta Road,12.92373854758,77.551917103229,"http://www.google.com/maps/place/12.92373854758,77.551917103229","12.92373854758,77.551917103229",2,https://www.practo.com/bangalore/doctor/dr-vinay-d-1-infectious-diseases-physician,2025-09-04T22:42:35.634020,20250904_223645,2025-09-05 08:35:42,2025-09-05 08:35:42
63,Ashwitha R Nayak,general-physician,MBBS,8 Years Experience Overall,8,350,5.0,JP Nagar,12.90164,77.58246,"http://www.google.com/maps/place/12.90164,77.58246","12.90164,77.58246",1,https://www.practo.com/bangalore/doctor/dr-ashwitha-r-nayak-general-physician,2025-09-04T22:42:40.313393,20250904_223645,2025-09-05 08:35:42,2025-09-05 08:35:42
64,Thara Nair,general-physician,"MBBS, doctor through the doctor's profile on Practo, Diploma in Diabetology (PGDD)",33 Years Experience Overall,33,700,4.5,HSR Layout,12.913107,77.636634,"http://www.google.com/maps/place/12.913107,77.636634","12.913107,77.636634",1,https://www.practo.com/bangalore/doctor/dr-thara-nair-general-physician,2025-09-04T22:42:52.789334,20250904_223645,2025-09-05 08:35:42,2025-09-05 08:35:42
65,Swarna Das,general-physician,"MBBS, MD - General Medicine",33 Years Experience Overall  (30 years as specialist),33,950,3.5,Bannerghatta Road,12.89666,77.59855,"http://www.google.com/maps/place/12.89666,77.59855","12.89666,77.59855",1,https://www.practo.com/bangalore/doctor/dr-swarna-das-internal-medicine,2025-09-04T22:43:00.365726,20250904_223645,2025-09-05 08:35:42,2025-09-05 08:35:42
66,Amarnath K A,general-physician,"MBBS, MD - General Medicine",21 Years Experience Overall,21,900,3.5,Yelahanka,13.0509374,77.5913499,"http://www.google.com/maps/place/13.0509374,77.5913499","13.0509374,77.5913499",1,https://www.practo.com/bangalore/doctor/dr-amarnath-k-a-general-physician,2025-09-04T22:43:05.412498,20250904_223645,2025-09-05 08:35:42,2025-09-05 08:35:42
67,Rajshree Kedia,general-physician,"MBBS, DNB - Family Medicine",12 Years Experience Overall,12,750,4.0,Bangalore,12.992347956727,77.719740651155,"http://www.google.com/maps/place/12.992347956727,77.719740651155","12.992347956727,77.719740651155",1,https://www.practo.com/bangalore/doctor/rajshree-kedia-general-physician,2025-09-04T22:43:11.321874,20250904_223645,2025-09-05 08:35:42,2025-09-05 08:35:42
68,Renuka C,general-physician,MBBS,6 Years Experience Overall,6,350,5.0,Koramangala,12.92621,77.63374,"http://www.google.com/maps/place/12.92621,77.63374","12.92621,77.63374",1,https://www.practo.com/bangalore/doctor/dr-renuka-c-general-physician,2025-09-04T22:43:17.111519,20250904_223645,2025-09-05 08:35:42,2025-09-05 08:35:42
69,Anil Kumar K C,general-physician,MBBS,8 Years Experience Overall,8,350,5.0,Banashankari,12.92353,77.55358,"http://www.google.com/maps/place/12.92353,77.55358","12.92353,77.55358",1,https://www.practo.com/bangalore/doctor/dr-anil-kumar-k-c-general-physician,2025-09-04T22:43:25.848787,20250904_223645,2025-09-05 08:35:42,2025-09-05 08:35:42
70,Sharada Shekar,general-physician,MBBS,43 Years Experience Overall,43,740,3.5,Malleswaram,12.9878536,77.571869,"http://www.google.com/maps/place/12.9878536,77.571869","12.9878536,77.571869",1,https://www.practo.com/bangalore/doctor/dr-mrs-sharda-shekar-internal-medicine,2025-09-04T22:43:32.404207,20250904_223645,2025-09-05 08:35:42,2025-09-05 08:35:42
71,Sharada Shekar,general-physician,MBBS,43 Years Experience Overall,43,740,3.5,Malleswaram,13.007537003025572,77.56577294034955,"http://www.google.com/maps/place/13.007537003025572,77.56577294034955","13.007537003025572,77.56577294034955",2,https://www.practo.com/bangalore/doctor/dr-mrs-sharda-shekar-internal-medicine,2025-09-04T22:43:32.404207,20250904_223645,2025-09-05 08:35:42,2025-09-05 08:35:42
72,Dilip Joseph Wilson,general-physician,"MBBS, Diploma in Tropical Medicine and hygiene",31 Years Experience Overall,31,700,4.5,Bangalore,12.912724982410982,77.67973871446961,"http://www.google.com/maps/place/12.912724982410982,77.67973871446961","12.912724982410982,77.67973871446961",1,https://www.practo.com/bangalore/doctor/dr-dilip-joseph-wilson-family-physician-family,2025-09-04T22:43:40.052014,20250904_223645,2025-09-05 08:35:42,2025-09-05 08:35:42
73,Disha R Shetty,general-physician,"MBBS, MD - General Medicine, DM - Cardiology",11 Years Experience Overall  (8 years as specialist),11,600,4.0,JP Nagar,12.90943650804,77.572673603668,"http://www.google.com/maps/place/12.90943650804,77.572673603668","12.90943650804,77.572673603668",1,https://www.practo.com/bangalore/doctor/dr-disha-r-shetty-cardiologist,2025-09-04T22:43:44.274717,20250904_223645,2025-09-05 08:35:42,2025-09-05 08:35:42
74,Rakshith B Das,general-physician,MBBS,5 Years Experience Overall,5,350,5.0,Bangalore,12.95905,77.52364,"http://www.google.com/maps/place/12.95905,77.52364","12.95905,77.52364",1,https://www.practo.com/bangalore/doctor/dr-rakshith-b-das-general-physician,2025-09-04T22:43:49.786324,20250904_223645,2025-09-05 08:35:42,2025-09-05 08:35:42
75,Kamal Bhalla,general-physician,"MBBS, MD - General Medicine",28 Years Experience Overall  (23 years as specialist),28,700,3.5,Banashankari,12.90786,77.56493,"http://www.google.com/maps/place/12.90786,77.56493","12.90786,77.56493",1,https://www.practo.com/bangalore/doctor/dr-kamal-ballal-internal-medicine,2025-09-04T22:44:03.993218,20250904_223645,2025-09-05 08:35:42,2025-09-05 08:35:42
76,Ravi Shankerji Kesari,general-physician,MBBS,21 Years Experience Overall,21,850,4.0,Koramangala,12.93386,77.62023,"http://www.google.com/maps/place/12.93386,77.62023","12.93386,77.62023",1,https://www.practo.com/bangalore/doctor/ravi-shankerji-kesari-internal-medicine,2025-09-04T22:44:08.867072,20250904_223645,2025-09-05 08:35:42,2025-09-05 08:35:42
77,Shashank Gurushanth,general-physician,MBBS,3 Years Experience Overall,3,350,5.0,Malleswaram,13.00043,77.56338,"http://www.google.com/maps/place/13.00043,77.56338","13.00043,77.56338",1,https://www.practo.com/bangalore/doctor/shashank-gurushanth-general-practitioner,2025-09-04T22:44:15.918756,20250904_223645,2025-09-05 08:35:42,2025-09-05 08:35:42
78,Rajesh S,general-physician,"MBBS, MD - General Medicine, DNB - General Medicine",15 Years Experience Overall,15,500,3.5,Yelahanka,13.102823585804376,77.58451581001282,"http://www.google.com/maps/place/13.102823585804375,77.58451581001282","13.102823585804375,77.58451581001282",1,https://www.practo.com/bangalore/doctor/dr-rajesh-s-general-physician-2,2025-09-04T22:44:21.148482,20250904_223645,2025-09-05 08:35:42,2025-09-05 08:35:42
79,Renu Saraogi,general-physician,MBBS,26 Years Experience Overall,26,600,5.0,Bellandur,12.926742,77.669707,"http://www.google.com/maps/place/12.926742,77.669707","12.926742,77.669707",1,https://www.practo.com/bangalore/doctor/dr-renu-saraogi-general-physician,2025-09-04T22:44:27.321269,20250904_223645,2025-09-05 08:35:42,2025-09-05 08:35:42
80,Renu Saraogi,general-physician,MBBS,26 Years Experience Overall,26,600,5.0,Bellandur,12.926312,77.67652,"http://www.google.com/maps/place/12.926312,77.67652","12.926312,77.67652",2,https://www.practo.com/bangalore/doctor/dr-renu-saraogi-general-physician,2025-09-04T22:44:27.321269,20250904_223645,2025-09-05 08:35:42,2025-09-05 08:35:42
81,Srividya S,general-physician,"MBBS, DNB - General Medicine",23 Years Experience Overall  (15 years as specialist),23,950,4.5,Basaveshwaranagar,13.01418,77.55595,"http://www.google.com/maps/place/13.01418,77.55595","13.01418,77.55595",1,https://www.practo.com/bangalore/doctor/dr-srividya-s-3-gynecologist-obstetrician,2025-09-04T22:44:32.539894,20250904_223645,2025-09-05 08:35:42,2025-09-05 08:35:42
82,Rajendra Narayan Sharma,general-physician,"MBBS, MD - General Medicine",33 Years Experience Overall,33,800,4.0,Koramangala,12.93393,77.61605,"http://www.google.com/maps/place/12.93393,77.61605","12.93393,77.61605",1,https://www.practo.com/bangalore/doctor/dr-rajendra-narayan-sharma-internal-medicine-general-physician,2025-09-04T22:44:40.568714,20250904_223645,2025-09-05 08:35:42,2025-09-05 08:35:42
83,Shashidhar M,general-physician,"MBBS, MD - General Medicine",30 Years Experience Overall  (13 years as specialist),30,750,4.5,Bangalore,12.913107,77.636634,"http://www.google.com/maps/place/12.913107,77.636634","12.913107,77.636634",1,https://www.practo.com/bangalore/doctor/dr-shashidhara-g-internal-medicine,2025-09-04T22:44:47.669367,20250904_223645,2025-09-05 08:35:42,2025-09-05 08:35:42
84,Basanth Kumar.S,general-physician,"MBBS, MD - General Medicine",22 Years Experience Overall  (18 years as specialist),22,1000,4.0,Bangalore,13.01707,77.64314,"http://www.google.com/maps/place/13.01707,77.64314","13.01707,77.64314",1,https://www.practo.com/bangalore/doctor/dr-basanth-kumar-s,2025-09-04T22:44:52.754576,20250904_223645,2025-09-05 08:35:42,2025-09-05 08:35:42
85,Kampana S,general-physician,MBBS,13 Years Experience Overall,13,350,5.0,Bangalore,13.01463,77.63528,"http://www.google.com/maps/place/13.01463,77.63528","13.01463,77.63528",1,https://www.practo.com/bangalore/doctor/dr-kampana-s-general-physician,2025-09-04T22:44:57.996872,20250904_223645,2025-09-05 08:35:42,2025-09-05 08:35:42
86,M B Rajashekar,general-physician,"MBBS, MD, MD - Tuberculosis Chest Diseases, Diploma Tuberculosis Chest Diseases (DTCD)",38 Years Experience Overall  (33 years as specialist),38,750,2.5,Banashankari,12.930631504042,77.547428797878,"http://www.google.com/maps/place/12.930631504042,77.547428797878","12.930631504042,77.547428797878",1,https://www.practo.com/bangalore/doctor/m-b-rajashekhar,2025-09-04T22:45:14.418198,20250904_223645,2025-09-05 08:35:42,2025-09-05 08:35:42
87,Gopinath B,general-physician,"MBBS, MD - General Medicine",13 Years Experience Overall  (12 years as specialist),13,300,5.0,Bangalore,13.038923395091,77.678240071525,"http://www.google.com/maps/place/13.038923395091,77.678240071525","13.038923395091,77.678240071525",1,https://www.practo.com/bangalore/doctor/dr-gopinath-b-internal-medicine,2025-09-04T22:45:22.016028,20250904_223645,2025-09-05 08:35:42,2025-09-05 08:35:42
88,Gopinath B,general-physician,"MBBS, MD - General Medicine",13 Years Experience Overall  (12 years as specialist),13,300,5.0,Bangalore,13.0202047,77.5691752,"http://www.google.com/maps/place/13.0202047,77.5691752","13.0202047,77.5691752",2,https://www.practo.com/bangalore/doctor/dr-gopinath-b-internal-medicine,2025-09-04T22:45:22.016028,20250904_223645,2025-09-05 08:35:42,2025-09-05 08:35:42
89,SS Kumar,general-physician,"MBBS, MD - General Medicine",51 Years Experience Overall  (42 years as specialist),51,740,3.5,Malleswaram,12.9878536,77.571869,"http://www.google.com/maps/place/12.9878536,77.571869","12.9878536,77.571869",1,https://www.practo.com/bangalore/doctor/dr-ss-kumar-internal-medicine,2025-09-04T22:45:28.838496,20250904_223645,2025-09-05 08:35:42,2025-09-05 08:35:42
90,Vignesh B,general-physician,"MBBS, Diploma in Laser & Advance Medical Skin Aesthetics, Fellowship In Facial Aesthetics & Cosmetology",4 Years Experience Overall  (1 year as specialist),4,750,3.5,Bangalore,12.850046487327,77.660293579102,"http://www.google.com/maps/place/12.850046487327,77.660293579102","12.850046487327,77.660293579102",1,https://www.practo.com/bangalore/doctor/vignesh-b-general-practitioner,2025-09-04T22:45:33.116171,20250904_223645,2025-09-05 08:35:42,2025-09-05 08:35:42
91,R Manjunath,general-physician,"MBBS, MD - General Medicine",36 Years Experience Overall  (29 years as specialist),36,1000,3.5,Bangalore,12.95959,77.64937,"http://www.google.com/maps/place/12.95959,77.64937","12.95959,77.64937",1,https://www.practo.com/bangalore/doctor/dr-r-manjunath-internal-medicine,2025-09-04T22:45:38.563191,20250904_223645,2025-09-05 08:35:42,2025-09-05 08:35:42
92,R Manjunath,general-physician,"MBBS, MD - General Medicine",36 Years Experience Overall  (29 years as specialist),36,1000,3.5,Bangalore,12.9172099,77.5919161,"http://www.google.com/maps/place/12.9172099,77.5919161","12.9172099,77.5919161",2,https://www.practo.com/bangalore/doctor/dr-r-manjunath-internal-medicine,2025-09-04T22:45:38.563191,20250904_223645,2025-09-05 08:35:42,2025-09-05 08:35:42
93,Sheela Abraham,general-physician,"MBBS, MRCP (UK)",38 Years Experience Overall,38,800,4.5,Bangalore,12.956031,77.717035,"http://www.google.com/maps/place/12.956031,77.717035","12.956031,77.717035",1,https://www.practo.com/bangalore/doctor/dr-sheela-abraham-general-physician,2025-09-04T22:45:42.776492,20250904_223645,2025-09-05 08:35:42,2025-09-05 08:35:42
94,Steve Paul Manjaly,general-physician,"DNB - General Medicine, MBBS",14 Years Experience Overall,14,1000,3.5,Bannerghatta Road,12.89666,77.59855,"http://www.google.com/maps/place/12.89666,77.59855","12.89666,77.59855",1,https://www.practo.com/bangalore/doctor/steve-paul-manjaly-geriatrician,2025-09-04T22:45:49.842999,20250904_223645,2025-09-05 08:35:42,2025-09-05 08:35:42
95,Steve Paul Manjaly,general-physician,"DNB - General Medicine, MBBS",14 Years Experience Overall,14,1000,3.5,Bannerghatta Road,12.93393,77.61605,"http://www.google.com/maps/place/12.93393,77.61605","12.93393,77.61605",2,https://www.practo.com/bangalore/doctor/steve-paul-manjaly-geriatrician,2025-09-04T22:45:49.842999,20250904_223645,2025-09-05 08:35:42,2025-09-05 08:35:42
96,Steve Paul Manjaly,general-physician,"DNB - General Medicine, MBBS",14 Years Experience Overall,14,1000,3.5,Bannerghatta Road,12.93386,77.62023,"http://www.google.com/maps/place/12.93386,77.62023","12.93386,77.62023",3,https://www.practo.com/bangalore/doctor/steve-paul-manjaly-geriatrician,2025-09-04T22:45:49.842999,20250904_223645,2025-09-05 08:35:42,2025-09-05 08:35:42
97,Nisarg Aravindan,general-physician,"MBBS, MD - Community & Family Medicine",5 Years Experience Overall  (1 year as specialist),5,700,3.8,Bangalore,13.032585240056,77.576603251127,"http://www.google.com/maps/place/13.032585240056,77.576603251127","13.032585240056,77.576603251127",1,https://www.practo.com/bangalore/doctor/nisarg-aravindan-family-physician,2025-09-04T22:45:55.965973,20250904_223645,2025-09-05 08:35:42,2025-09-05 08:35:42
98,Tharanath S,general-physician,"MBBS, MD - General Medicine, Post Graduate Diploma in Diabetes Management",13 Years Experience Overall,13,750,5.0,Bangalore,13.067371886659895,77.58388937116436,"http://www.google.com/maps/place/13.067371886659895,77.58388937116436","13.067371886659895,77.58388937116436",1,https://www.practo.com/bangalore/doctor/dr-tharanath-s-general-physician,2025-09-04T22:46:02.371118,20250904_223645,2025-09-05 08:35:42,2025-09-05 08:35:42
99,Tharanath S,general-physician,"MBBS, MD - General Medicine, Post Graduate Diploma in Diabetes Management",13 Years Experience Overall,13,750,5.0,Bangalore,13.0950791,77.5159871,"http://www.google.com/maps/place/13.0950791,77.5159871","13.0950791,77.5159871",2,https://www.practo.com/bangalore/doctor/dr-tharanath-s-general-physician,2025-09-04T22:46:02.371118,20250904_223645,2025-09-05 08:35:42,2025-09-05 08:35:42
100,Khuda Baksh,general-physician,"MD - General Medicine, MBBS",9 Years Experience Overall,9,400,5.0,Bangalore,13.018248901383,77.592758068316,"http://www.google.com/maps/place/13.018248901383,77.592758068316","13.018248901383,77.592758068316",1,https://www.practo.com/bangalore/doctor/dr-khuda-baksh-general-physician,2025-09-04T22:46:10.644014,20250904_223645,2025-09-05 08:35:42,2025-09-05 08:35:42
101,Shruti Rai,general-physician,MBBS,2 Years Experience Overall,2,350,5.0,Bangalore,13.01463,77.63528,"http://www.google.com/maps/place/13.01463,77.63528","13.01463,77.63528",1,https://www.practo.com/bangalore/doctor/dr-shruti-rai-general-physician,2025-09-04T22:46:23.715805,20250904_223645,2025-09-05 08:35:42,2025-09-05 08:35:42
102,Malla Reddy,general-physician,"MBBS, MD - General Medicine",24 Years Experience Overall  (16 years as specialist),24,950,3.5,Bannerghatta Road,12.89666,77.59855,"http://www.google.com/maps/place/12.89666,77.59855","12.89666,77.59855",1,https://www.practo.com/bangalore/doctor/dr-malla-reddy-internal-medicine,2025-09-04T22:46:30.841827,20250904_223645,2025-09-05 08:35:42,2025-09-05 08:35:42
103,B Rajashekar,general-physician,"MBBS, MD - General Medicine",38 Years Experience Overall  (17 years as specialist),38,650,3.5,Indiranagar,12.9817,77.64125,"http://www.google.com/maps/place/12.9817,77.64125","12.9817,77.64125",1,https://www.practo.com/bangalore/doctor/dr-rajashekhar-general-physician,2025-09-04T22:46:37.662018,20250904_223645,2025-09-05 08:35:42,2025-09-05 08:35:42
104,B S Ramesh,general-physician,"MBBS, DNB - General Medicine",49 Years Experience Overall  (40 years as specialist),49,950,3.5,Bannerghatta Road,12.89666,77.59855,"http://www.google.com/maps/place/12.89666,77.59855","12.89666,77.59855",1,https://www.practo.com/bangalore/doctor/dr-b-s-ramesh-1-internal-medicine,2025-09-04T22:46:44.302829,20250904_223645,2025-09-05 08:35:42,2025-09-05 08:35:42
105,Mohit J,general-physician,MBBS,5 Years Experience Overall,5,250,5.0,Peenya,13.01046,77.49563,"http://www.google.com/maps/place/13.01046,77.49563","13.01046,77.49563",1,https://www.practo.com/bangalore/doctor/dr-mohit-j-general-physician,2025-09-04T22:46:49.886534,20250904_223645,2025-09-05 08:35:42,2025-09-05 08:35:42
106,Suresh G,general-physician,MBBS,35 Years Experience Overall,35,800,4.0,Bellandur,12.926312,77.67652,"http://www.google.com/maps/place/12.926312,77.67652","12.926312,77.67652",1,https://www.practo.com/bangalore/doctor/dr-suresh-gupta-general-physician-2,2025-09-04T22:46:55.647910,20250904_223645,2025-09-05 08:35:42,2025-09-05 08:35:42
107,Suresh G,general-physician,MBBS,35 Years Experience Overall,35,800,4.0,Bellandur,12.913107,77.636634,"http://www.google.com/maps/place/12.913107,77.636634","12.913107,77.636634",2,https://www.practo.com/bangalore/doctor/dr-suresh-gupta-general-physician-2,2025-09-04T22:46:55.647910,20250904_223645,2025-09-05 08:35:42,2025-09-05 08:35:42
108,Vinod Kumar. S,general-physician,MBBS,11 Years Experience Overall  (3 years as specialist),11,700,5.0,Bangalore,13.0178484,77.6436104,"http://www.google.com/maps/place/13.0178484,77.6436104","13.0178484,77.6436104",1,https://www.practo.com/bangalore/doctor/dr-vinodkumar-s-general-physician,2025-09-04T22:47:00.086477,20250904_223645,2025-09-05 08:35:42,2025-09-05 08:35:42
109,Sheetal Kamat,general-physician,"MBBS, DNB - General Medicine",23 Years Experience Overall  (16 years as specialist),23,740,3.5,Malleswaram,12.9878536,77.571869,"http://www.google.com/maps/place/12.9878536,77.571869","12.9878536,77.571869",1,https://www.practo.com/bangalore/doctor/sheetal-kamat-internal-medicine,2025-09-04T22:47:07.143306,20250904_223645,2025-09-05 08:35:42,2025-09-05 08:35:42
110,Priti Shankar,general-physician,MBBS,42 Years Experience Overall,42,700,3.5,Indiranagar,12.965645950024369,77.64177174634308,"http://www.google.com/maps/place/12.965645950024369,77.64177174634308","12.965645950024369,77.64177174634308",1,https://www.practo.com/bangalore/doctor/dr-priti-shankar-general-physician,2025-09-04T22:47:12.054486,20250904_223645,2025-09-05 08:35:42,2025-09-05 08:35:42
111,Ravi Kumar V N,general-physician,"MBBS, DNB - General Medicine",27 Years Experience Overall  (21 years as specialist),27,950,4.5,Bangalore,13.01418,77.55595,"http://www.google.com/maps/place/13.01418,77.55595","13.01418,77.55595",1,https://www.practo.com/bangalore/doctor/dr-ravi-kumar-v-n-general-physician,2025-09-04T22:47:18.794648,20250904_223645,2025-09-05 08:35:42,2025-09-05 08:35:42
112,Chethana Phonde,general-physician,MBBS,18 Years Experience Overall,18,300,4.5,Bangalore,12.96235,77.51097,"http://www.google.com/maps/place/12.96235,77.51097","12.96235,77.51097",1,https://www.practo.com/bangalore/doctor/chethana-phonde-general-physician,2025-09-04T22:47:35.850078,20250904_223645,2025-09-05 08:35:42,2025-09-05 08:35:42
113,Neelam Vasudeva,general-physician,"MBBS, MD - General Medicine",13 Years Experience Overall  (8 years as specialist),13,600,4.5,HSR Layout,12.900474396626,77.646951754263,"http://www.google.com/maps/place/12.900474396626,77.646951754263","12.900474396626,77.646951754263",1,https://www.practo.com/bangalore/doctor/dr-neelam-vasudeva-general-physician,2025-09-04T22:47:40.230457,20250904_223645,2025-09-05 08:35:42,2025-09-05 08:35:42
114,Harish N S,general-physician,"MBBS, Fellowship in Diabetes (UK), MD - General Medicine",16 Years Experience Overall  (10 years as specialist),16,600,5.0,Basavanagudi,12.937142719689495,77.57710486650467,"http://www.google.com/maps/place/12.937142719689495,77.57710486650467","12.937142719689495,77.57710486650467",1,https://www.practo.com/bangalore/doctor/harish-n-s-diabetologist,2025-09-04T22:47:44.595544,20250904_223645,2025-09-05 08:35:42,2025-09-05 08:35:42
115,Sujatha S Ganagi,general-physician,MBBS,25 Years Experience Overall,25,950,4.5,Yeshwanthpur,13.01418,77.55595,"http://www.google.com/maps/place/13.01418,77.55595","13.01418,77.55595",1,https://www.practo.com/bangalore/doctor/dr-sujatha-s-ganagi-gynecologist-obstetrician,2025-09-04T22:47:52.503101,20250904_223645,2025-09-05 08:35:42,2025-09-05 08:35:42
116,Shivaram HR,general-physician,"MBBS, MD - Medicine",24 Years Experience Overall  (19 years as specialist),24,700,4.0,Bangalore,12.879809043329404,77.55350947380066,"http://www.google.com/maps/place/12.879809043329404,77.55350947380066","12.879809043329404,77.55350947380066",1,https://www.practo.com/bangalore/doctor/dr-shivaram-h-r-general-physician,2025-09-04T22:47:58.718097,20250904_223645,2025-09-05 08:35:42,2025-09-05 08:35:42
117,Shivaram HR,general-physician,"MBBS, MD - Medicine",24 Years Experience Overall  (19 years as specialist),24,700,4.0,Bangalore,12.8906,77.58203,"http://www.google.com/maps/place/12.8906,77.58203","12.8906,77.58203",2,https://www.practo.com/bangalore/doctor/dr-shivaram-h-r-general-physician,2025-09-04T22:47:58.718097,20250904_223645,2025-09-05 08:35:42,2025-09-05 08:35:42
118,Rajeeva Moger,general-physician,"MBBS, DNB - General Medicine, doctor through the doctor's profile on Practo",26 Years Experience Overall,26,950,3.5,Bannerghatta Road,12.89666,77.59855,"http://www.google.com/maps/place/12.89666,77.59855","12.89666,77.59855",1,https://www.practo.com/bangalore/doctor/dr-rajeeva-moger-1-general-physician,2025-09-04T22:48:04.963519,20250904_223645,2025-09-05 08:35:42,2025-09-05 08:35:42
119,Ankit P Bhojani,general-physician,"MD - General Medicine, MBBS",10 Years Experience Overall  (3 years as specialist),10,750,4.5,Banashankari,12.993238,77.576277,"http://www.google.com/maps/place/12.993238,77.576277","12.993238,77.576277",1,https://www.practo.com/bangalore/doctor/ankit-p-bhojani-internal-medicine,2025-09-04T22:48:09.081056,20250904_223645,2025-09-05 08:35:42,2025-09-05 08:35:42
120,Sunil Kumar G,general-physician,"MBBS, MD - Pediatrics",13 Years Experience Overall  (9 years as specialist),13,1000,4.5,Whitefield,12.96677973801215,77.71723955869675,"http://www.google.com/maps/place/12.96677973801215,77.71723955869675","12.96677973801215,77.71723955869675",1,https://www.practo.com/bangalore/doctor/dr-sunil-kumar-g-pediatrician,2025-09-04T22:48:14.963759,20250904_223645,2025-09-05 08:35:42,2025-09-05 08:35:42
121,Balaji Jaganmohan,general-physician,MBBS,21 Years Experience Overall,21,750,4.5,Bangalore,12.91681768463285,77.55485361657314,"http://www.google.com/maps/place/12.91681768463285,77.55485361657314","12.91681768463285,77.55485361657314",1,https://www.practo.com/bangalore/doctor/dr-balaji-jaganmohan-diabetologist,2025-09-04T22:48:22.208918,20250904_223645,2025-09-05 08:35:42,2025-09-05 08:35:42
122,Balaji Jaganmohan,general-physician,MBBS,21 Years Experience Overall,21,750,4.5,Bangalore,12.892268,77.581459,"http://www.google.com/maps/place/12.892268,77.581459","12.892268,77.581459",2,https://www.practo.com/bangalore/doctor/dr-balaji-jaganmohan-diabetologist,2025-09-04T22:48:22.208918,20250904_223645,2025-09-05 08:35:42,2025-09-05 08:35:42
123,Minakshi Dutta,general-physician,MBBS,47 Years Experience Overall,47,500,5.0,Domlur,12.958479271262028,77.63894319534302,"http://www.google.com/maps/place/12.958479271262028,77.63894319534302","12.958479271262028,77.63894319534302",1,https://www.practo.com/bangalore/doctor/minakshi-dutta-general-physician,2025-09-04T22:48:29.242681,20250904_223645,2025-09-05 08:35:42,2025-09-05 08:35:42
124,Vishwanath BL,general-physician,"MBBS, MD - General Medicine",21 Years Experience Overall  (17 years as specialist),21,950,4.3,JP Nagar,12.890283409156629,77.58200358599424,"http://www.google.com/maps/place/12.890283409156629,77.58200358599424","12.890283409156629,77.58200358599424",1,https://www.practo.com/bangalore/doctor/dr-bl-vishwanath-general-physician,2025-09-04T22:48:48.677140,20250904_223645,2025-09-05 08:35:42,2025-09-05 08:35:42
125,Murali Krishna Kora,general-physician,MBBS,16 Years Experience Overall,16,800,3.5,Indiranagar,12.965645950024369,77.64177174634308,"http://www.google.com/maps/place/12.965645950024369,77.64177174634308","12.965645950024369,77.64177174634308",1,https://www.practo.com/bangalore/doctor/murali-13-pain-management-specialist,2025-09-04T22:48:54.853459,20250904_223645,2025-09-05 08:35:42,2025-09-05 08:35:42
126,Ramesh S.,general-physician,"MBBS, MD - General Medicine",45 Years Experience Overall,45,900,3.5,Indiranagar,12.95959,77.64937,"http://www.google.com/maps/place/12.95959,77.64937","12.95959,77.64937",1,https://www.practo.com/bangalore/doctor/dr-ramesh-s-internal-medicine,2025-09-04T22:49:01.903493,20250904_223645,2025-09-05 08:35:42,2025-09-05 08:35:42
127,Suresh. K. G,general-physician,"MBBS, MD - General Medicine",27 Years Experience Overall  (22 years as specialist),27,1000,3.5,Bangalore,12.95959,77.64937,"http://www.google.com/maps/place/12.95959,77.64937","12.95959,77.64937",1,https://www.practo.com/bangalore/doctor/dr-suresh-k-g-internal-medicine-1,2025-09-04T22:49:08.846411,20250904_223645,2025-09-05 08:35:42,2025-09-05 08:35:42
128,Suresh. K. G,general-physician,"MBBS, MD - General Medicine",27 Years Experience Overall  (22 years as specialist),27,1000,3.5,Bangalore,12.9781484,77.6357908,"http://www.google.com/maps/place/12.9781484,77.6357908","12.9781484,77.6357908",2,https://www.practo.com/bangalore/doctor/dr-suresh-k-g-internal-medicine-1,2025-09-04T22:49:08.846411,20250904_223645,2025-09-05 08:35:42,2025-09-05 08:35:42
129,Somnath Mitra,general-physician,"MBBS, MD - General Medicine",41 Years Experience Overall  (31 years as specialist),41,1000,3.5,Bangalore,12.95959,77.64937,"http://www.google.com/maps/place/12.95959,77.64937","12.95959,77.64937",1,https://www.practo.com/bangalore/doctor/dr-somnath-mitra-general-physician-1,2025-09-04T22:49:13.760801,20250904_223645,2025-09-05 08:35:42,2025-09-05 08:35:42
130,Yashoda  Ravi,general-physician,"MBBS, MD - General Medicine, MRCP (UK)",32 Years Experience Overall,32,750,4.3,Bangalore,13.0080102,77.5837373,"http://www.google.com/maps/place/13.0080102,77.5837373","13.0080102,77.5837373",1,https://www.practo.com/bangalore/doctor/dr-yashoda-ravi-cardiologist,2025-09-04T22:49:19.656670,20250904_223645,2025-09-05 08:35:42,2025-09-05 08:35:42
131,Prathima Narayana Murthy,general-physician,MBBS,25 Years Experience Overall,25,800,3.5,Indiranagar,12.965645950024369,77.64177174634308,"http://www.google.com/maps/place/12.965645950024369,77.64177174634308","12.965645950024369,77.64177174634308",1,https://www.practo.com/bangalore/doctor/prathima-narayana-murthy-diabetologist,2025-09-04T22:49:27.246325,20250904_223645,2025-09-05 08:35:42,2025-09-05 08:35:42
132,Dayanand Balappa Yaligar,general-physician,MBBS,26 Years Experience Overall,26,750,4.0,Bangalore,12.841217976285144,77.64780521392822,"http://www.google.com/maps/place/12.841217976285145,77.64780521392822","12.841217976285145,77.64780521392822",1,https://www.practo.com/bangalore/doctor/dayanand-balappa-yaligar-general-physician,2025-09-04T22:49:35.564672,20250904_223645,2025-09-05 08:35:42,2025-09-05 08:35:42
133,Dayanand Balappa Yaligar,general-physician,MBBS,26 Years Experience Overall,26,750,4.0,Bangalore,12.869933617098384,77.65389029794743,"http://www.google.com/maps/place/12.869933617098384,77.65389029794743","12.869933617098384,77.65389029794743",2,https://www.practo.com/bangalore/doctor/dayanand-balappa-yaligar-general-physician,2025-09-04T22:49:35.564672,20250904_223645,2025-09-05 08:35:42,2025-09-05 08:35:42
134,Hareesh R,general-physician,"MBBS, MD - General Medicine",22 Years Experience Overall  (14 years as specialist),22,500,4.5,Frazer Town,13.0211963,77.6569818,"http://www.google.com/maps/place/13.0211963,77.6569818","13.0211963,77.6569818",1,https://www.practo.com/bangalore/doctor/dr-hareesh-r-internal-medicine,2025-09-04T22:49:43.410256,20250904_223645,2025-09-05 08:35:42,2025-09-05 08:35:42
135,Anusuya Shetty,general-physician,"MBBS, DNB - General Medicine",27 Years Experience Overall  (20 years as specialist),27,800,4.0,Koramangala,12.93393,77.61605,"http://www.google.com/maps/place/12.93393,77.61605","12.93393,77.61605",1,https://www.practo.com/bangalore/doctor/dr-anusuya-shetty-internal-medicine,2025-09-04T22:49:49.618633,20250904_223645,2025-09-05 08:35:42,2025-09-05 08:35:42
136,Anusuya Shetty,general-physician,"MBBS, DNB - General Medicine",27 Years Experience Overall  (20 years as specialist),27,800,4.0,Koramangala,12.9874584,77.6893938,"http://www.google.com/maps/place/12.9874584,77.6893938","12.9874584,77.6893938",2,https://www.practo.com/bangalore/doctor/dr-anusuya-shetty-internal-medicine,2025-09-04T22:49:49.618633,20250904_223645,2025-09-05 08:35:42,2025-09-05 08:35:42
137,Pradheep,general-physician,MBBS,39 Years Experience Overall,39,700,4.5,Bangalore,12.912724982410982,77.67973871446961,"http://www.google.com/maps/place/12.912724982410982,77.67973871446961","12.912724982410982,77.67973871446961",1,https://www.practo.com/bangalore/doctor/dr-pradheep-family-physician,2025-09-04T22:50:06.978804,20250904_223645,2025-09-05 08:35:42,2025-09-05 08:35:42
138,K. N. Manjunath,general-physician,MBBS,47 Years Experience Overall  (40 years as specialist),47,1000,4.5,Bangalore,12.988214877524,77.592170438025,"http://www.google.com/maps/place/12.988214877524,77.592170438025","12.988214877524,77.592170438025",1,https://www.practo.com/bangalore/doctor/dr-k-n-manjunath-internal-medicine,2025-09-04T22:50:14.333222,20250904_223645,2025-09-05 08:35:42,2025-09-05 08:35:42
139,Lakshmi Chandraja Ravi,general-physician,"MBBS, MD - Radio Diagnosis/Radiology",7 Years Experience Overall,7,1000,5.0,Bangalore,12.9912,77.7232,"http://www.google.com/maps/place/12.9912,77.7232","12.9912,77.7232",1,https://www.practo.com/bangalore/doctor/dr-lakshmi-chandraja-ravi-general-physician,2025-09-04T22:50:20.681222,20250904_223645,2025-09-05 08:35:42,2025-09-05 08:35:42
140,Suma Raju,general-physician,"MBBS, Diplomate of American Board of Internal Medicine (Internal Medicine), Diplomate of the American Board of Internal Medicine (Nephrology)",23 Years Experience Overall  (16 years as specialist),23,1000,4.5,HSR Layout,12.923978621392791,77.64819118833974,"http://www.google.com/maps/place/12.923978621392793,77.64819118833974","12.923978621392793,77.64819118833974",1,https://www.practo.com/bangalore/doctor/dr-suma-raju-nephrologist-nephrologist-nephrologist,2025-09-04T22:50:28.928882,20250904_223645,2025-09-05 08:35:42,2025-09-05 08:35:42
141,Suma Raju,general-physician,"MBBS, Diplomate of American Board of Internal Medicine (Internal Medicine), Diplomate of the American Board of Internal Medicine (Nephrology)",23 Years Experience Overall  (16 years as specialist),23,1000,4.5,HSR Layout,12.914863502502936,77.58651975542307,"http://www.google.com/maps/place/12.914863502502936,77.58651975542307","12.914863502502936,77.58651975542307",2,https://www.practo.com/bangalore/doctor/dr-suma-raju-nephrologist-nephrologist-nephrologist,2025-09-04T22:50:28.928882,20250904_223645,2025-09-05 08:35:42,2025-09-05 08:35:42
142,Tanzeem Shajahan,general-physician,"MBBS, MD - General Medicine",12 Years Experience Overall,12,400,5.0,Bangalore,13.018248901383,77.592758068316,"http://www.google.com/maps/place/13.018248901383,77.592758068316","13.018248901383,77.592758068316",1,https://www.practo.com/bangalore/doctor/tanzeem-shajahan-general-physician,2025-09-04T22:50:33.470723,20250904_223645,2025-09-05 08:35:42,2025-09-05 08:35:42
143,Bushra Bahjat,general-physician,"MBBS, MD - General Medicine",11 Years Experience Overall  (8 years as specialist),11,1300,5.0,Richmond Town,12.966053,77.609366,"http://www.google.com/maps/place/12.966053,77.609366","12.966053,77.609366",1,https://www.practo.com/bangalore/doctor/bushra-bahjat-internal-medicine,2025-09-04T22:50:39.929130,20250904_223645,2025-09-05 08:35:42,2025-09-05 08:35:42
144,Girish P Vakrani,general-physician,"MBBS, MD - General Medicine, DNB - Nephrology",26 Years Experience Overall  (14 years as specialist),26,750,4.3,KR Puram,13.010609438786531,77.69731592089553,"http://www.google.com/maps/place/13.010609438786533,77.69731592089553","13.010609438786533,77.69731592089553",1,https://www.practo.com/bangalore/doctor/dr-grish-p-vakrani-1-general-physician,2025-09-04T22:50:45.003500,20250904_223645,2025-09-05 08:35:42,2025-09-05 08:35:42
145,Harshavardhana V Naik,general-physician,"MBBS, MD - Community Medicine",13 Years Experience Overall  (6 years as specialist),13,350,5.0,Bangalore,12.962462087578,77.511466945062,"http://www.google.com/maps/place/12.962462087578,77.511466945062","12.962462087578,77.511466945062",1,https://www.practo.com/bangalore/doctor/harsha-19-family-physician,2025-09-04T22:50:50.608167,20250904_223645,2025-09-05 08:35:42,2025-09-05 08:35:42
146,Vishwanath  M Kamoji,general-physician,MBBS,30 Years Experience Overall  (23 years as specialist),30,900,3.5,Yelahanka,13.0950791,77.5159871,"http://www.google.com/maps/place/13.0950791,77.5159871","13.0950791,77.5159871",1,https://www.practo.com/bangalore/doctor/dr-vishwanath-m-kamoji-pediatrician,2025-09-04T22:50:55.704942,20250904_223645,2025-09-05 08:35:42,2025-09-05 08:35:42
147,Navaneethan Venkatachalam,general-physician,MBBS,8 Years Experience Overall,8,200,3.5,Hebbal,13.0509374,77.5913499,"http://www.google.com/maps/place/13.0509374,77.5913499","13.0509374,77.5913499",1,https://www.practo.com/bangalore/doctor/dr-navaneethan-venkatachalam-emergency-critical-care,2025-09-04T22:51:00.682150,20250904_223645,2025-09-05 08:35:42,2025-09-05 08:35:42
148,Mallina Manoj,general-physician,MBBS,1 Year Experience Overall,1,499,5.0,Vijayanagar,12.966008469132,77.54103138621,"http://www.google.com/maps/place/12.966008469132,77.54103138621","12.966008469132,77.54103138621",1,https://www.practo.com/bangalore/doctor/dr-mallina-manoj-sexologist,2025-09-04T22:51:17.505490,20250904_223645,2025-09-05 08:35:42,2025-09-05 08:35:42
149,K V Prakash,general-physician,MBBS,29 Years Experience Overall,29,1000,4.3,Bangalore,12.9539016,77.5482265,"http://www.google.com/maps/place/12.9539016,77.5482265","12.9539016,77.5482265",1,https://www.practo.com/bangalore/doctor/k-v-prakash-general-physician,2025-09-04T22:51:22.865977,20250904_223645,2025-09-05 08:35:42,2025-09-05 08:35:42
150,Anil Kumar R,general-physician,"MBBS, DNB - General Medicine, doctor through the doctor's profile on Practo",37 Years Experience Overall,37,800,4.5,Basavanagudi,12.91786,77.672289,"http://www.google.com/maps/place/12.91786,77.672289","12.91786,77.672289",1,https://www.practo.com/bangalore/doctor/dr-anil-kumar-r-bariatric-surgeon,2025-09-04T22:51:31.248359,20250904_223645,2025-09-05 08:35:42,2025-09-05 08:35:42
151,Amit kamath,general-physician,"MBBS, MD - General Medicine",10 Years Experience Overall  (4 years as specialist),10,900,3.5,Bangalore,13.0509374,77.5913499,"http://www.google.com/maps/place/13.0509374,77.5913499","13.0509374,77.5913499",1,https://www.practo.com/bangalore/doctor/dr-amit-kamath-general-physician,2025-09-04T22:51:35.965797,20250904_223645,2025-09-05 08:35:42,2025-09-05 08:35:42
152,Khoushik K H,general-physician,"MBBS, MD - General Medicine",7 Years Experience Overall,7,800,4.5,Bangalore,12.9874584,77.6893938,"http://www.google.com/maps/place/12.9874584,77.6893938","12.9874584,77.6893938",1,https://www.practo.com/bangalore/doctor/dr-khoushik-k-h-general-physician,2025-09-04T22:51:41.718256,20250904_223645,2025-09-05 08:35:42,2025-09-05 08:35:42
153,Mahesh Chandra Pai,general-physician,MBBS,26 Years Experience Overall  (19 years as specialist),26,1000,5.0,Yeshwanthpur,13.027456,77.542773,"http://www.google.com/maps/place/13.027456,77.542773","13.027456,77.542773",1,https://www.practo.com/bangalore/doctor/dr-mahesh-chandra-pai-internal-medicine,2025-09-04T22:51:46.316399,20250904_223645,2025-09-05 08:35:42,2025-09-05 08:35:42
154,Lakshmikanth N,general-physician,"MBBS, MD - General Medicine",17 Years Experience Overall  (7 years as specialist),17,800,4.5,HSR Layout,12.916126234147,77.630543595879,"http://www.google.com/maps/place/12.916126234147,77.630543595879","12.916126234147,77.630543595879",1,https://www.practo.com/bangalore/doctor/dr-lakshmikanth-n-general-physician-1,2025-09-04T22:51:53.143999,20250904_223645,2025-09-05 08:35:42,2025-09-05 08:35:42
155,Lakshmikanth N,general-physician,"MBBS, MD - General Medicine",17 Years Experience Overall  (7 years as specialist),17,800,4.5,HSR Layout,12.913830792204,77.629907768339,"http://www.google.com/maps/place/12.913830792204,77.629907768339","12.913830792204,77.629907768339",2,https://www.practo.com/bangalore/doctor/dr-lakshmikanth-n-general-physician-1,2025-09-04T22:51:53.143999,20250904_223645,2025-09-05 08:35:42,2025-09-05 08:35:42
156,Adithya M D,general-physician,MBBS,10 Years Experience Overall,10,700,4.5,HSR Layout,12.887798276071,77.651156757018,"http://www.google.com/maps/place/12.887798276071,77.651156757018","12.887798276071,77.651156757018",1,https://www.practo.com/bangalore/doctor/adithya-md-general-physician,2025-09-04T22:52:00.617242,20250904_223645,2025-09-05 08:35:42,2025-09-05 08:35:42
157,Sunil Havannavar,general-physician,"MBBS, DNB - General Medicine",22 Years Experience Overall  (13 years as specialist),22,800,4.0,Bangalore,12.919958522657216,77.665283565548,"http://www.google.com/maps/place/12.919958522657215,77.665283565548","12.919958522657215,77.665283565548",1,https://www.practo.com/bangalore/doctor/dr-sunil-havannavar-gynecologist-obstetrician,2025-09-04T22:52:05.218244,20250904_223645,2025-09-05 08:35:42,2025-09-05 08:35:42
158,Kannan Ramaswamy,general-physician,MBBS,33 Years Experience Overall,33,1000,4.0,Jayanagar,12.9281467,77.5970283,"http://www.google.com/maps/place/12.9281467,77.5970283","12.9281467,77.5970283",1,https://www.practo.com/bangalore/doctor/dr-kannan-ramaswamy-pediatrician-general-physician,2025-09-04T22:52:09.669911,20250904_223645,2025-09-05 08:35:42,2025-09-05 08:35:42
159,Pooja U K,general-physician,"MBBS, MD - General Medicine, DM - Endocrinology",10 Years Experience Overall  (5 years as specialist),10,1200,4.0,Whitefield,12.972753047119,77.750681340694,"http://www.google.com/maps/place/12.972753047119,77.750681340694","12.972753047119,77.750681340694",1,https://www.practo.com/bangalore/doctor/dr-pooja-u-k-endocrinologist,2025-09-04T22:52:24.430970,20250904_223645,2025-09-05 08:35:42,2025-09-05 08:35:42
160,Pooja U K,general-physician,"MBBS, MD - General Medicine, DM - Endocrinology",10 Years Experience Overall  (5 years as specialist),10,1200,4.0,Whitefield,13.007537003025572,77.56577294034955,"http://www.google.com/maps/place/13.007537003025572,77.56577294034955","13.007537003025572,77.56577294034955",2,https://www.practo.com/bangalore/doctor/dr-pooja-u-k-endocrinologist,2025-09-04T22:52:24.430970,20250904_223645,2025-09-05 08:35:42,2025-09-05 08:35:42
161,Parul Priyambada,general-physician,"MBBS, MS - Ophthalmology, DNB - Ophthalmology",13 Years Experience Overall  (7 years as specialist),13,500,4.0,Bangalore,13.02519,77.59203,"http://www.google.com/maps/place/13.02519,77.59203","13.02519,77.59203",1,https://www.practo.com/bangalore/doctor/dr-parul-priyambada-ophthalmologist,2025-09-04T22:52:31.480651,20250904_223645,2025-09-05 08:35:42,2025-09-05 08:35:42
162,Divyatha Shekar,general-physician,MBBS,18 Years Experience Overall,18,950,4.5,Yeshwanthpur,13.01418,77.55595,"http://www.google.com/maps/place/13.01418,77.55595","13.01418,77.55595",1,https://www.practo.com/bangalore/doctor/dr-divyatha-arun-general-physician,2025-09-04T22:52:36.154656,20250904_223645,2025-09-05 08:35:42,2025-09-05 08:35:42
163,Deepanju D Changkakoti,general-physician,"MBBS, MD - General Medicine",33 Years Experience Overall  (29 years as specialist),33,1000,4.5,Bangalore,12.988214877524,77.592170438025,"http://www.google.com/maps/place/12.988214877524,77.592170438025","12.988214877524,77.592170438025",1,https://www.practo.com/bangalore/doctor/dr-deepanju-d-changkakoti-internal-medicine,2025-09-04T22:52:44.093540,20250904_223645,2025-09-05 08:35:42,2025-09-05 08:35:42
164,Akram Khan M D,general-physician,MBBS,7 Years Experience Overall,7,750,3.8,Whitefield,12.970189,77.7279954,"http://www.google.com/maps/place/12.970189,77.7279954","12.970189,77.7279954",1,https://www.practo.com/bangalore/doctor/dr-akram-khan-md-general-physician,2025-09-04T22:52:49.218575,20250904_223645,2025-09-05 08:35:42,2025-09-05 08:35:42
165,Mohit A Kalyankar,general-physician,"MBBS, MD - General Medicine",5 Years Experience Overall,5,500,3.8,Bangalore,12.9245674,77.5180364,"http://www.google.com/maps/place/12.9245674,77.5180364","12.9245674,77.5180364",1,https://www.practo.com/bangalore/doctor/mohit-a-kalyankar-general-physician-1,2025-09-04T22:52:54.895432,20250904_223645,2025-09-05 08:35:42,2025-09-05 08:35:42
166,Nupur Tandon,general-physician,MBBS,16 Years Experience Overall,16,800,4.5,Bangalore,12.912724982410982,77.67973871446961,"http://www.google.com/maps/place/12.912724982410982,77.67973871446961","12.912724982410982,77.67973871446961",1,https://www.practo.com/bangalore/doctor/dr-nupur-tandon,2025-09-04T22:53:02.445670,20250904_223645,2025-09-05 08:35:42,2025-09-05 08:35:42
167,Himaaldev G J,general-physician,"MBBS, MD - Anaesthesiology",13 Years Experience Overall  (6 years as specialist),13,740,3.5,Seshadripuram,12.9878536,77.571869,"http://www.google.com/maps/place/12.9878536,77.571869","12.9878536,77.571869",1,https://www.practo.com/bangalore/doctor/dr-himaal-dev-emergency-critical-care,2025-09-04T22:53:06.714007,20250904_223645,2025-09-05 08:35:42,2025-09-05 08:35:42
168,Arisha Salam,general-physician,"MBBS, MD - Dermatology , Venereology & Leprosy",5 Years Experience Overall  (2 years as specialist),5,750,4.5,Jayanagar,12.892268,77.581459,"http://www.google.com/maps/place/12.892268,77.581459","12.892268,77.581459",1,https://www.practo.com/bangalore/doctor/dr-dr-arisha-salam-ayurvedic-endocrinologist-internal-medicine-specialist,2025-09-04T22:53:15.000457,20250904_223645,2025-09-05 08:35:42,2025-09-05 08:35:42
169,Nagappa Parasappa Byakod,general-physician,"MBBS, MBBS",6 Years Experience Overall,6,600,3.5,KR Puram,13.0160183,77.7007569,"http://www.google.com/maps/place/13.0160183,77.7007569","13.0160183,77.7007569",1,https://www.practo.com/bangalore/doctor/nagappa-parasappa-byakod-orthopedist,2025-09-04T22:53:20.831985,20250904_223645,2025-09-05 08:35:42,2025-09-05 08:35:42
170,Pallavi D Rao,general-physician,"MBBS, MRCP (UK)",13 Years Experience Overall,13,1190,3.5,Frazer Town,13.0509374,77.5913499,"http://www.google.com/maps/place/13.0509374,77.5913499","13.0509374,77.5913499",1,https://www.practo.com/bangalore/doctor/pallavi-d-rao,2025-09-04T22:53:33.392743,20250904_223645,2025-09-05 08:35:42,2025-09-05 08:35:42
171,Shrunga K R,general-physician,MBBS,1 Year Experience Overall,1,350,5.0,Bannerghatta Road,13.01048,77.49562,"http://www.google.com/maps/place/13.01048,77.49562","13.01048,77.49562",1,https://www.practo.com/bangalore/doctor/dr-shrunga-k-r-general-physician,2025-09-04T22:53:38.794395,20250904_223645,2025-09-05 08:35:42,2025-09-05 08:35:42
172,Sai Rekha,general-physician,MBBS,3 Years Experience Overall,3,500,3.5,Bangalore,12.942325494483653,77.60795194655657,"http://www.google.com/maps/place/12.942325494483653,77.60795194655657","12.942325494483653,77.60795194655657",1,https://www.practo.com/bangalore/doctor/sai-rekha-general-physician,2025-09-04T22:53:43.655821,20250904_223645,2025-09-05 08:35:42,2025-09-05 08:35:42
173,Junaid A J,general-physician,"MBBS, MD - Radio Diagnosis/Radiology, DNB - Radio Diagnosis",12 Years Experience Overall  (7 years as specialist),12,950,4.0,Jayanagar,12.992609497684,77.718626975938,"http://www.google.com/maps/place/12.992609497684,77.718626975938","12.992609497684,77.718626975938",1,https://www.practo.com/bangalore/doctor/dr-junaid-a-j-radiologist,2025-09-04T22:53:49.554562,20250904_223645,2025-09-05 08:35:42,2025-09-05 08:35:42
174,Kavita Manwani,general-physician,MBBS,29 Years Experience Overall,29,750,4.5,JP Nagar,12.892268,77.581459,"http://www.google.com/maps/place/12.892268,77.581459","12.892268,77.581459",1,https://www.practo.com/bangalore/doctor/dr-kavita-manwani-general-medicine,2025-09-04T22:53:57.043913,20250904_223645,2025-09-05 08:35:42,2025-09-05 08:35:42
175,Jagadish Chandra,general-physician,"MD - General Medicine, MBBS",37 Years Experience Overall  (26 years as specialist),37,850,4.0,Jayanagar,12.9281467,77.5970283,"http://www.google.com/maps/place/12.9281467,77.5970283","12.9281467,77.5970283",1,https://www.practo.com/bangalore/doctor/dr-jagadish-chandra-internal-medicine,2025-09-04T22:54:03.229118,20250904_223645,2025-09-05 08:35:42,2025-09-05 08:35:42
176,Mamilla Bhagya Lakshmi,general-physician,MBBS,13 Years Experience Overall,13,600,4.5,HSR Layout,12.913107,77.636634,"http://www.google.com/maps/place/12.913107,77.636634","12.913107,77.636634",1,https://www.practo.com/bangalore/doctor/dr-mamilla-bhagya-lakshmi-general-physician,2025-09-04T22:54:10.577432,20250904_223645,2025-09-05 08:35:42,2025-09-05 08:35:42
177,Nidhi M Kamat,general-physician,"DNB - Family Medicine, MBBS",12 Years Experience Overall  (7 years as specialist),12,700,4.0,Basavanagudi,12.948156,77.567577,"http://www.google.com/maps/place/12.948156,77.567577","12.948156,77.567577",1,https://www.practo.com/bangalore/doctor/nidhi-nayak-general-physician,2025-09-04T22:54:16.911785,20250904_223645,2025-09-05 08:35:42,2025-09-05 08:35:42
178,Divya K S,general-physician,"MBBS, DNB - General Medicine",18 Years Experience Overall,18,900,3.5,Seshadripuram,12.9878536,77.571869,"http://www.google.com/maps/place/12.9878536,77.571869","12.9878536,77.571869",1,https://www.practo.com/bangalore/doctor/dr-diivya-k-s-infectious-diseases-physician,2025-09-04T22:54:22.963099,20250904_223645,2025-09-05 08:35:42,2025-09-05 08:35:42
179,Nakkina Kusumanjali,general-physician,"MBBS, MS - Ophthalmology",9 Years Experience Overall  (4 years as specialist),9,500,4.0,Marathahalli,12.954458732748211,77.70138502120972,"http://www.google.com/maps/place/12.954458732748211,77.70138502120972","12.954458732748211,77.70138502120972",1,https://www.practo.com/bangalore/doctor/dr-nakkina-kusumanjali-general-surgeon,2025-09-04T22:54:29.271946,20250904_223645,2025-09-05 08:35:42,2025-09-05 08:35:42
180,Meenakshi Kalyan,general-physician,"MBBS, MD - Medicine, doctor through the doctor's profile on Practo",17 Years Experience Overall,17,750,4.5,Whitefield,12.988040405561094,77.72831976413727,"http://www.google.com/maps/place/12.988040405561094,77.72831976413727","12.988040405561094,77.72831976413727",1,https://www.practo.com/bangalore/doctor/dr-meenakshi-kalyan-general-physician,2025-09-04T22:54:47.916136,20250904_223645,2025-09-05 08:35:42,2025-09-05 08:35:42
181,Ramya Sri Kodali,general-physician,"DNB - General Medicine, MBBS, DNB - Clinical Immunology & Rheumatology",10 Years Experience Overall  (4 years as specialist),10,1000,4.0,Bangalore,12.919958522657216,77.665283565548,"http://www.google.com/maps/place/12.919958522657215,77.665283565548","12.919958522657215,77.665283565548",1,https://www.practo.com/bangalore/doctor/dr-ramya-sri-kodali-internal-medicine,2025-09-04T22:54:55.303449,20250904_223645,2025-09-05 08:35:42,2025-09-05 08:35:42
182,Kishore. N. L,general-physician,"MBBS, MD - General Medicine",20 Years Experience Overall  (15 years as specialist),20,750,3.5,Yelahanka,13.0950791,77.5159871,"http://www.google.com/maps/place/13.0950791,77.5159871","13.0950791,77.5159871",1,https://www.practo.com/bangalore/doctor/dr-kishore-n-l-1-general-physician,2025-09-04T22:55:00.906320,20250904_223645,2025-09-05 08:35:42,2025-09-05 08:35:42
183,John Paul M,general-physician,"MBBS, MD - General Medicine",11 Years Experience Overall,11,1100,5.0,Yeshwanthpur,13.027456,77.542773,"http://www.google.com/maps/place/13.027456,77.542773","13.027456,77.542773",1,https://www.practo.com/bangalore/doctor/dr-john-paul-m-general-physician,2025-09-04T22:55:06.625843,20250904_223645,2025-09-05 08:35:42,2025-09-05 08:35:42
184,K S Harshith,general-physician,"MD - General Medicine, MBBS",24 Years Experience Overall  (18 years as specialist),24,1100,5.0,JP Nagar,12.9108543526037,77.58517026901245,"http://www.google.com/maps/place/12.9108543526037,77.58517026901245","12.9108543526037,77.58517026901245",1,https://www.practo.com/bangalore/doctor/dr-harshith-k-s-internal-medicine,2025-09-04T22:55:12.030796,20250904_223645,2025-09-05 08:35:42,2025-09-05 08:35:42
185,K S Harshith,general-physician,"MD - General Medicine, MBBS",24 Years Experience Overall  (18 years as specialist),24,1100,5.0,JP Nagar,12.916037386611,77.619367644075,"http://www.google.com/maps/place/12.916037386611,77.619367644075","12.916037386611,77.619367644075",2,https://www.practo.com/bangalore/doctor/dr-harshith-k-s-internal-medicine,2025-09-04T22:55:12.030796,20250904_223645,2025-09-05 08:35:42,2025-09-05 08:35:42
186,Isha Sah,general-physician,"MBBS, MD  - Aerospace Medicine",12 Years Experience Overall  (6 years as specialist),12,800,4.5,Bangalore,12.9144,77.677429,"http://www.google.com/maps/place/12.9144,77.677429","12.9144,77.677429",1,https://www.practo.com/bangalore/doctor/isha-sah-general-physician,2025-09-04T22:55:20.543299,20250904_223645,2025-09-05 08:35:42,2025-09-05 08:35:42
187,Bhargavi Botlagunta,general-physician,"MBBS, MD - General Medicine",14 Years Experience Overall  (7 years as specialist),14,600,4.5,Bangalore,12.9144,77.677429,"http://www.google.com/maps/place/12.9144,77.677429","12.9144,77.677429",1,https://www.practo.com/bangalore/doctor/bhargavi-botlagunta-general-physician,2025-09-04T22:55:28.985930,20250904_223645,2025-09-05 08:35:42,2025-09-05 08:35:42
188,Rakesh Kumar,general-physician,"MBBS, MD - General Medicine",7 Years Experience Overall,7,600,5.0,HSR Layout,12.9203135,77.651483,"http://www.google.com/maps/place/12.9203135,77.651483","12.9203135,77.651483",1,https://www.practo.com/bangalore/doctor/rakesh-kumar-7-general-physician-17,2025-09-04T22:55:35.588564,20250904_223645,2025-09-05 08:35:42,2025-09-05 08:35:42
189,Shashikant,general-physician,MBBS,20 Years Experience Overall,20,750,5.0,Bangalore,13.023744275201487,77.71447024502439,"http://www.google.com/maps/place/13.023744275201489,77.71447024502439","13.023744275201489,77.71447024502439",1,https://www.practo.com/bangalore/doctor/shashikant-2-psychologist,2025-09-04T22:55:43.407971,20250904_223645,2025-09-05 08:35:42,2025-09-05 08:35:42
190,Vinayak M,general-physician,"MBBS, MD - Pediatrics, DM - Medical Oncology",15 Years Experience Overall  (6 years as specialist),15,700,4.5,Bangalore,13.0211963,77.6569818,"http://www.google.com/maps/place/13.0211963,77.6569818","13.0211963,77.6569818",1,https://www.practo.com/bangalore/doctor/vinayak-munirathnam-oncologist,2025-09-04T22:55:51.710051,20250904_223645,2025-09-05 08:35:42,2025-09-05 08:35:42
191,Vidya. S,general-physician,MBBS,23 Years Experience Overall,23,800,4.0,Koramangala,12.93393,77.61605,"http://www.google.com/maps/place/12.93393,77.61605","12.93393,77.61605",1,https://www.practo.com/bangalore/doctor/ms-1-general-physician,2025-09-04T22:56:09.745323,20250904_223645,2025-09-05 08:35:42,2025-09-05 08:35:42
192,Rakshith Shetty,general-physician,"MBBS, MD - General Medicine",11 Years Experience Overall  (6 years as specialist),11,700,4.5,Indiranagar,12.971480147219042,77.6469898223877,"http://www.google.com/maps/place/12.971480147219042,77.6469898223877","12.971480147219042,77.6469898223877",1,https://www.practo.com/bangalore/doctor/dr-rakshith-shetty-general-physician,2025-09-04T22:56:16.113190,20250904_223645,2025-09-05 08:35:42,2025-09-05 08:35:42
193,Praveen Channappa,general-physician,MBBS,24 Years Experience Overall,24,300,5.0,Bangalore,12.903132272784374,77.52387859047728,"http://www.google.com/maps/place/12.903132272784374,77.52387859047728","12.903132272784374,77.52387859047728",1,https://www.practo.com/bangalore/doctor/dr-praveen-channappa-family-physician,2025-09-04T22:56:22.918292,20250904_223645,2025-09-05 08:35:42,2025-09-05 08:35:42
194,Anand R Sutar,general-physician,MBBS,26 Years Experience Overall,26,740,3.5,Seshadripuram,12.9878536,77.571869,"http://www.google.com/maps/place/12.9878536,77.571869","12.9878536,77.571869",1,https://www.practo.com/bangalore/doctor/dr-anand-r-sutar-emergency-critical-care,2025-09-04T22:56:29.300570,20250904_223645,2025-09-05 08:35:42,2025-09-05 08:35:42
195,Kousar Begum,general-physician,"MBBS, MD - General Medicine",5 Years Experience Overall  (2 years as specialist),5,400,3.5,Bangalore,13.054001270500676,77.71786998022814,"http://www.google.com/maps/place/13.054001270500676,77.71786998022814","13.054001270500676,77.71786998022814",1,https://www.practo.com/bangalore/doctor/dr-kousar-begum-general-physician,2025-09-04T22:56:33.962615,20250904_223645,2025-09-05 08:35:42,2025-09-05 08:35:42
196,Sumanjita Bora,general-physician,MBBS,11 Years Experience Overall,11,1000,4.5,Bangalore,12.912724982410982,77.67973871446961,"http://www.google.com/maps/place/12.912724982410982,77.67973871446961","12.912724982410982,77.67973871446961",1,https://www.practo.com/bangalore/doctor/dr-sumanjita-bora-general-physician,2025-09-04T22:56:39.760740,20250904_223645,2025-09-05 08:35:42,2025-09-05 08:35:42
197,Sumanjita Bora,general-physician,MBBS,11 Years Experience Overall,11,1000,4.5,Bangalore,12.9144,77.677429,"http://www.google.com/maps/place/12.9144,77.677429","12.9144,77.677429",2,https://www.practo.com/bangalore/doctor/dr-sumanjita-bora-general-physician,2025-09-04T22:56:39.760740,20250904_223645,2025-09-05 08:35:42,2025-09-05 08:35:42
198,Kashif Syed,general-physician,MBBS,15 Years Experience Overall,15,1000,4.5,Bangalore,12.988214877524,77.592170438025,"http://www.google.com/maps/place/12.988214877524,77.592170438025","12.988214877524,77.592170438025",1,https://www.practo.com/bangalore/doctor/kashif-syed-general-physician,2025-09-04T22:56:46.893136,20250904_223645,2025-09-05 08:35:42,2025-09-05 08:35:42
199,Siva Karthik Reddy,general-physician,"MBBS, MD - General Medicine",7 Years Experience Overall  (4 years as specialist),7,450,3.8,Bangalore,13.022372110076638,77.69784048199654,"http://www.google.com/maps/place/13.022372110076638,77.69784048199654","13.022372110076638,77.69784048199654",1,https://www.practo.com/bangalore/doctor/siva-karthik-reddy-internal-medicine,2025-09-04T22:56:51.221862,20250904_223645,2025-09-05 08:35:42,2025-09-05 08:35:42
200,Vishal Lahoti,general-physician,"MBBS, MD - General Medicine, DM - Endocrinology",12 Years Experience Overall  (9 years as specialist),12,1000,4.0,Jayanagar,12.9281467,77.5970283,"http://www.google.com/maps/place/12.9281467,77.5970283","12.9281467,77.5970283",1,https://www.practo.com/bangalore/doctor/dr-vishal-lahoti-endocrinologist,2025-09-04T22:56:57.751180,20250904_223645,2025-09-05 08:35:42,2025-09-05 08:35:42
201,Vishal Lahoti,general-physician,"MBBS, MD - General Medicine, DM - Endocrinology",12 Years Experience Overall  (9 years as specialist),12,1000,4.0,Jayanagar,12.913107,77.636634,"http://www.google.com/maps/place/12.913107,77.636634","12.913107,77.636634",2,https://www.practo.com/bangalore/doctor/dr-vishal-lahoti-endocrinologist,2025-09-04T22:56:57.751180,20250904_223645,2025-09-05 08:35:42,2025-09-05 08:35:42
202,Vishal Lahoti,general-physician,"MBBS, MD - General Medicine, DM - Endocrinology",12 Years Experience Overall  (9 years as specialist),12,1000,4.0,Jayanagar,12.90786,77.56493,"http://www.google.com/maps/place/12.90786,77.56493","12.90786,77.56493",3,https://www.practo.com/bangalore/doctor/dr-vishal-lahoti-endocrinologist,2025-09-04T22:56:57.751180,20250904_223645,2025-09-05 08:35:42,2025-09-05 08:35:42
203,Vishal Lahoti,general-physician,"MBBS, MD - General Medicine, DM - Endocrinology",12 Years Experience Overall  (9 years as specialist),12,1000,4.0,Jayanagar,12.9311477,77.5371764,"http://www.google.com/maps/place/12.9311477,77.5371764","12.9311477,77.5371764",4,https://www.practo.com/bangalore/doctor/dr-vishal-lahoti-endocrinologist,2025-09-04T22:56:57.751180,20250904_223645,2025-09-05 08:35:42,2025-09-05 08:35:42
204,Deepasha Rajpurkar,general-physician,MBBS,15 Years Experience Overall,15,700,4.0,Bangalore,12.841217976285144,77.64780521392822,"http://www.google.com/maps/place/12.841217976285145,77.64780521392822","12.841217976285145,77.64780521392822",1,https://www.practo.com/bangalore/doctor/dr-deepasha-rajpurkar-diabetologist,2025-09-04T22:57:05.823262,20250904_223645,2025-09-05 08:35:42,2025-09-05 08:35:42
205,Samith A Shetty,general-physician,MBBS,25 Years Experience Overall,25,1000,4.5,Bangalore,12.9832875,77.5947521,"http://www.google.com/maps/place/12.9832875,77.5947521","12.9832875,77.5947521",1,https://www.practo.com/bangalore/doctor/dr-samith-a-shetty-diabetologist,2025-09-04T22:57:21.188156,20250904_223645,2025-09-05 08:35:42,2025-09-05 08:35:42
206,Kavitha,general-physician,"MBBS, DNB - Family Medicine",22 Years Experience Overall,22,1000,5.0,Yeshwanthpur,13.027456,77.542773,"http://www.google.com/maps/place/13.027456,77.542773","13.027456,77.542773",1,https://www.practo.com/bangalore/doctor/dr-kavitha-57-general-physician,2025-09-04T22:57:26.955544,20250904_223645,2025-09-05 08:35:42,2025-09-05 08:35:42
207,Akshatha C,general-physician,MBBS,20 Years Experience Overall  (17 years as specialist),20,700,4.3,HSR Layout,12.835339746435,77.693793672211,"http://www.google.com/maps/place/12.835339746435,77.693793672211","12.835339746435,77.693793672211",1,https://www.practo.com/bangalore/doctor/dr-shetty-ophthalmologist,2025-09-04T22:57:34.497300,20250904_223645,2025-09-05 08:35:42,2025-09-05 08:35:42
208,Jagadeesh K H,general-physician,"MBBS, DNB - General Medicine",19 Years Experience Overall  (8 years as specialist),19,800,4.0,Bangalore,12.919958522657216,77.665283565548,"http://www.google.com/maps/place/12.919958522657215,77.665283565548","12.919958522657215,77.665283565548",1,https://www.practo.com/bangalore/doctor/jagadeesh-k-h-general-physician,2025-09-04T22:57:41.136683,20250904_223645,2025-09-05 08:35:42,2025-09-05 08:35:42
209,Vijay Kumar. M. N.,general-physician,MBBS,46 Years Experience Overall,46,1000,4.0,Jayanagar,12.9281467,77.5970283,"http://www.google.com/maps/place/12.9281467,77.5970283","12.9281467,77.5970283",1,https://www.practo.com/bangalore/doctor/dr-vijay-kumar-m-n-gastroenterologist-1,2025-09-04T22:57:48.957854,20250904_223645,2025-09-05 08:35:42,2025-09-05 08:35:42
210,Swati Bhat,general-physician,"MBBS, MD - Anaesthesiology",19 Years Experience Overall  (14 years as specialist),19,1200,4.2,Bangalore,13.0080102,77.5837373,"http://www.google.com/maps/place/13.0080102,77.5837373","13.0080102,77.5837373",1,https://www.practo.com/bangalore/doctor/swati-bhat-spine-and-pain-specialist,2025-09-04T22:57:55.035696,20250904_223645,2025-09-05 08:35:42,2025-09-05 08:35:42
211,Chetan S,general-physician,"MBBS, MD - General Medicine",11 Years Experience Overall,11,800,4.5,Bangalore,12.956031,77.717035,"http://www.google.com/maps/place/12.956031,77.717035","12.956031,77.717035",1,https://www.practo.com/bangalore/doctor/dr-chetan-s-general-physician,2025-09-04T22:58:02.969999,20250904_223645,2025-09-05 08:35:42,2025-09-05 08:35:42
212,Mopidevi Raghuvarma,general-physician,"MBBS, MD - General Medicine",7 Years Experience Overall  (2 years as specialist),7,600,5.0,Bangalore,12.9912,77.7232,"http://www.google.com/maps/place/12.9912,77.7232","12.9912,77.7232",1,https://www.practo.com/bangalore/doctor/mopidevi-raghuvarma-general-medicine,2025-09-04T22:58:10.320139,20250904_223645,2025-09-05 08:35:42,2025-09-05 08:35:42
213,Sridhar Sreenivasan,general-physician,"MBBS, MD - General Medicine",13 Years Experience Overall  (9 years as specialist),13,950,4.0,JP Nagar,12.904012,77.560366,"http://www.google.com/maps/place/12.904012,77.560366","12.904012,77.560366",1,https://www.practo.com/bangalore/doctor/sridhar-sreenivasan-general-physician,2025-09-04T22:58:18.039832,20250904_223645,2025-09-05 08:35:42,2025-09-05 08:35:42
214,Soumya Yeturi,general-physician,"MBBS, Diplomate of American Board of Internal Medicine (Internal Medicine)",28 Years Experience Overall  (10 years as specialist),28,800,4.0,Bangalore,12.919958522657216,77.665283565548,"http://www.google.com/maps/place/12.919958522657215,77.665283565548","12.919958522657215,77.665283565548",1,https://www.practo.com/bangalore/doctor/dr-soumya-yeturi-internal-medicine,2025-09-04T22:58:23.018574,20250904_223645,2025-09-05 08:35:42,2025-09-05 08:35:42
215,Ravikumara P,general-physician,MBBS,17 Years Experience Overall,17,500,5.0,Bangalore,13.02474491007974,77.63470597565174,"http://www.google.com/maps/place/13.02474491007974,77.63470597565174","13.02474491007974,77.63470597565174",1,https://www.practo.com/bangalore/doctor/ravikumara-p-general-physician,2025-09-04T22:58:37.579310,20250904_223645,2025-09-05 08:35:42,2025-09-05 08:35:42
216,Prashant,general-physician,"MBBS, MD - General Medicine, DM - Cardiology",20 Years Experience Overall  (7 years as specialist),20,600,4.3,Bannerghatta Road,12.893337639988,77.610752180822,"http://www.google.com/maps/place/12.893337639988,77.610752180822","12.893337639988,77.610752180822",1,https://www.practo.com/bangalore/doctor/prashant-adappa-cardiologist,2025-09-04T22:58:43.034390,20250904_223645,2025-09-05 08:35:42,2025-09-05 08:35:42
217,Samarthana Vijaykumar,general-physician,"MBBS, MD - General Medicine",9 Years Experience Overall  (5 years as specialist),9,700,5.0,Rajajinagar,12.996717372974,77.554335594177,"http://www.google.com/maps/place/12.996717372974,77.554335594177","12.996717372974,77.554335594177",1,https://www.practo.com/bangalore/doctor/dr-samarthana-vk-internal-medicine,2025-09-04T22:58:48.393901,20250904_223645,2025-09-05 08:35:42,2025-09-05 08:35:42
218,Sowbhagya,general-physician,"MBBS, Fellowship in Aesthetic Medicine (FAM)",9 Years Experience Overall  (6 years as specialist),9,800,5.0,Indiranagar,12.971682540853,77.647362852006,"http://www.google.com/maps/place/12.971682540853,77.647362852006","12.971682540853,77.647362852006",1,https://www.practo.com/bangalore/doctor/dr-sowbhagya-3-dermatologist,2025-09-04T22:58:53.439116,20250904_223645,2025-09-05 08:35:42,2025-09-05 08:35:42
219,Nithya Kanya Arthi,general-physician,MBBS,22 Years Experience Overall,22,700,4.0,Bangalore,12.841217976285144,77.64780521392822,"http://www.google.com/maps/place/12.841217976285145,77.64780521392822","12.841217976285145,77.64780521392822",1,https://www.practo.com/bangalore/doctor/dr-nithya-kanya-arthi-general-medicine,2025-09-04T22:58:58.962239,20250904_223645,2025-09-05 08:35:42,2025-09-05 08:35:42
220,Channaraya V,general-physician,MBBS,43 Years Experience Overall,43,600,5.0,Banashankari,12.9269242,77.4786841,"http://www.google.com/maps/place/12.9269242,77.4786841","12.9269242,77.4786841",1,https://www.practo.com/bangalore/doctor/dr-prof-channaraya-v-general-physician,2025-09-04T22:59:04.341079,20250904_223645,2025-09-05 08:35:42,2025-09-05 08:35:42
221,Channaraya V,general-physician,MBBS,43 Years Experience Overall,43,600,5.0,Banashankari,12.90786,77.56493,"http://www.google.com/maps/place/12.90786,77.56493","12.90786,77.56493",2,https://www.practo.com/bangalore/doctor/dr-prof-channaraya-v-general-physician,2025-09-04T22:59:04.341079,20250904_223645,2025-09-05 08:35:42,2025-09-05 08:35:42
222,Keerthikar Prabhakaran,general-physician,MBBS,5 Years Experience Overall,5,350,5.0,Bangalore,12.97437,77.67208,"http://www.google.com/maps/place/12.97437,77.67208","12.97437,77.67208",1,https://www.practo.com/bangalore/doctor/keerthikar-prabhakaran-general-physician,2025-09-04T22:59:11.912789,20250904_223645,2025-09-05 08:35:42,2025-09-05 08:35:42
223,Abhay Sikaria,general-physician,"MBBS, MS - General Surgery, MCh - Neuro Surgery",12 Years Experience Overall,12,950,4.0,Koramangala,12.93393,77.61605,"http://www.google.com/maps/place/12.93393,77.61605","12.93393,77.61605",1,https://www.practo.com/bangalore/doctor/dr-abhay-sikaria-general-physician,2025-09-04T22:59:18.306350,20250904_223645,2025-09-05 08:35:42,2025-09-05 08:35:42
224,Abhay Sikaria,general-physician,"MBBS, MS - General Surgery, MCh - Neuro Surgery",12 Years Experience Overall,12,950,4.0,Koramangala,12.913107,77.636634,"http://www.google.com/maps/place/12.913107,77.636634","12.913107,77.636634",2,https://www.practo.com/bangalore/doctor/dr-abhay-sikaria-general-physician,2025-09-04T22:59:18.306350,20250904_223645,2025-09-05 08:35:42,2025-09-05 08:35:42
225,Waseem Ansari,general-physician,"MBBS, MS - Orthopaedics",10 Years Experience Overall  (5 years as specialist),10,400,3.5,Bangalore,13.054001270500676,77.71786998022814,"http://www.google.com/maps/place/13.054001270500676,77.71786998022814","13.054001270500676,77.71786998022814",1,https://www.practo.com/bangalore/doctor/dr-waseem-ansari-orthopedist,2025-09-04T22:59:23.776873,20250904_223645,2025-09-05 08:35:42,2025-09-05 08:35:42
226,Sheetal Brahmesh,general-physician,MBBS,21 Years Experience Overall,21,740,3.5,Seshadripuram,12.9878536,77.571869,"http://www.google.com/maps/place/12.9878536,77.571869","12.9878536,77.571869",1,https://www.practo.com/bangalore/doctor/dr-sheetal-brahmesh-internal-medicine,2025-09-04T22:59:30.209720,20250904_223645,2025-09-05 08:35:42,2025-09-05 08:35:42
227,Akshatha M,general-physician,"MBBS, MD - General Medicine",16 Years Experience Overall,16,500,4.2,KR Puram,13.010609438786531,77.69731592089553,"http://www.google.com/maps/place/13.010609438786533,77.69731592089553","13.010609438786533,77.69731592089553",1,https://www.practo.com/bangalore/doctor/dr-akshatha-m-general-physician,2025-09-04T22:59:45.385838,20250904_223645,2025-09-05 08:35:42,2025-09-05 08:35:42
228,Archa Prasad,general-physician,"MBBS, MS - General Surgery, DNB - General Surgery, Fellowship in Breast Surgery",13 Years Experience Overall  (9 years as specialist),13,800,4.0,Malleswaram,12.994785009825748,77.57152050733566,"http://www.google.com/maps/place/12.994785009825748,77.57152050733566","12.994785009825748,77.57152050733566",1,https://www.practo.com/bangalore/doctor/archa-prasad-general-surgeon,2025-09-04T22:59:52.793370,20250904_223645,2025-09-05 08:35:42,2025-09-05 08:35:42
229,Archa Prasad,general-physician,"MBBS, MS - General Surgery, DNB - General Surgery, Fellowship in Breast Surgery",13 Years Experience Overall  (9 years as specialist),13,800,4.0,Malleswaram,12.948505219460106,77.58004216138157,"http://www.google.com/maps/place/12.948505219460106,77.58004216138157","12.948505219460106,77.58004216138157",2,https://www.practo.com/bangalore/doctor/archa-prasad-general-surgeon,2025-09-04T22:59:52.793370,20250904_223645,2025-09-05 08:35:42,2025-09-05 08:35:42
230,Toby A Thomas,general-physician,"MBBS, DNB - General Medicine",19 Years Experience Overall,19,800,4.0,Koramangala,12.93393,77.61605,"http://www.google.com/maps/place/12.93393,77.61605","12.93393,77.61605",1,https://www.practo.com/bangalore/doctor/toby-a-thomas-general-physician-1,2025-09-04T22:59:59.112477,20250904_223645,2025-09-05 08:35:42,2025-09-05 08:35:42
231,Nikhil B,general-physician,"MBBS, MD - General Medicine, DNB - Neurology",16 Years Experience Overall  (5 years as specialist),16,1000,4.5,Bangalore,12.9832875,77.5947521,"http://www.google.com/maps/place/12.9832875,77.5947521","12.9832875,77.5947521",1,https://www.practo.com/bangalore/doctor/nikhil-b,2025-09-04T23:00:07.092904,20250904_223645,2025-09-05 08:35:42,2025-09-05 08:35:42
232,Nikhil B,general-physician,"MBBS, MD - General Medicine, DNB - Neurology",16 Years Experience Overall  (5 years as specialist),16,1000,4.5,Bangalore,12.90786,77.56493,"http://www.google.com/maps/place/12.90786,77.56493","12.90786,77.56493",2,https://www.practo.com/bangalore/doctor/nikhil-b,2025-09-04T23:00:07.092904,20250904_223645,2025-09-05 08:35:42,2025-09-05 08:35:42
233,Vijayalakshmi S,general-physician,MBBS,27 Years Experience Overall,27,650,4.5,Bangalore,12.956031,77.717035,"http://www.google.com/maps/place/12.956031,77.717035","12.956031,77.717035",1,https://www.practo.com/bangalore/doctor/dr-vijayalakshmi-s-general-physician-1,2025-09-04T23:00:11.937749,20250904_223645,2025-09-05 08:35:42,2025-09-05 08:35:42
234,Priyanka S,general-physician,MBBS,17 Years Experience Overall,17,600,4.2,Bangalore,13.083540548586605,77.64355089515448,"http://www.google.com/maps/place/13.083540548586605,77.64355089515448","13.083540548586605,77.64355089515448",1,https://www.practo.com/bangalore/doctor/dr-priyanka-s-1-general-physician-1,2025-09-04T23:00:17.538318,20250904_223645,2025-09-05 08:35:42,2025-09-05 08:35:42
235,Shivakumar M.P.,general-physician,"MBBS, MD - General Medicine",29 Years Experience Overall,29,650,4.5,JP Nagar,12.892268,77.581459,"http://www.google.com/maps/place/12.892268,77.581459","12.892268,77.581459",1,https://www.practo.com/bangalore/doctor/dr-shivakumar-m-p-general-physician,2025-09-04T23:00:24.298136,20250904_223645,2025-09-05 08:35:42,2025-09-05 08:35:42
236,Manyam Indira,general-physician,"MBBS, Diploma in Medical Radio-Diagnosis",15 Years Experience Overall,15,600,5.0,Bangalore,12.9269242,77.4786841,"http://www.google.com/maps/place/12.9269242,77.4786841","12.9269242,77.4786841",1,https://www.practo.com/bangalore/doctor/dr-manyam-indira-radiologist,2025-09-04T23:00:31.967934,20250904_223645,2025-09-05 08:35:42,2025-09-05 08:35:42
237,Mohit Nahata,general-physician,"MBBS, DNB - Orthopedics/Orthopedic Surgery",8 Years Experience Overall  (6 years as specialist),8,700,5.0,Bangalore,13.034495771359,77.629196811005,"http://www.google.com/maps/place/13.034495771359,77.629196811005","13.034495771359,77.629196811005",1,https://www.practo.com/bangalore/doctor/mohit-nahata-orthopedist,2025-09-04T23:00:37.642815,20250904_223645,2025-09-05 08:35:42,2025-09-05 08:35:42
238,Samarth S Shetty,general-physician,"MBBS, M.D. (Psychiatry)",4 Years Experience Overall  (1 year as specialist),4,2000,4.0,Bangalore,12.919958522657216,77.665283565548,"http://www.google.com/maps/place/12.919958522657215,77.665283565548","12.919958522657215,77.665283565548",1,https://www.practo.com/bangalore/doctor/dr-samarth-s-shetty-ayurvedic-endocrinologist-internal-medicine-specialist,2025-09-04T23:00:41.869967,20250904_223645,2025-09-05 08:35:42,2025-09-05 08:35:42
239,Niveditha B Karodi,general-physician,"MBBS, MD - General Medicine",15 Years Experience Overall  (10 years as specialist),15,750,3.5,Yelahanka,13.0950791,77.5159871,"http://www.google.com/maps/place/13.0950791,77.5159871","13.0950791,77.5159871",1,https://www.practo.com/bangalore/doctor/dr-niveditha-b-kerodi-internal-medicine,2025-09-04T23:01:02.430315,20250904_223645,2025-09-05 08:35:42,2025-09-05 08:35:42
240,Shoaib Khan,general-physician,MBBS,7 Years Experience Overall,7,650,4.5,Frazer Town,13.010432635310371,77.65827119350433,"http://www.google.com/maps/place/13.010432635310373,77.65827119350433","13.010432635310373,77.65827119350433",1,https://www.practo.com/bangalore/doctor/shoaib-khan-orthopedist,2025-09-04T23:01:09.782505,20250904_223645,2025-09-05 08:35:42,2025-09-05 08:35:42
241,Nishant Gaurav,general-physician,MBBS,4 Years Experience Overall,4,700,4.5,Marathahalli,12.9874584,77.6893938,"http://www.google.com/maps/place/12.9874584,77.6893938","12.9874584,77.6893938",1,https://www.practo.com/bangalore/doctor/nishant-gaurav-general-physician,2025-09-04T23:01:17.744735,20250904_223645,2025-09-05 08:35:42,2025-09-05 08:35:42
242,Vaibhav Lokhande,general-physician,"MBBS, DNB - Physical Medicine & Rehabilition",16 Years Experience Overall,16,1200,4.0,Bangalore,13.01707,77.64314,"http://www.google.com/maps/place/13.01707,77.64314","13.01707,77.64314",1,https://www.practo.com/bangalore/doctor/vaibhav-lokhande-rehab-physical-medicine-specialist,2025-09-04T23:01:22.933411,20250904_223645,2025-09-05 08:35:42,2025-09-05 08:35:42
243,Ayesha Firdos,general-physician,MBBS,26 Years Experience Overall,26,1000,4.3,Indiranagar,12.9781484,77.6357908,"http://www.google.com/maps/place/12.9781484,77.6357908","12.9781484,77.6357908",1,https://www.practo.com/bangalore/doctor/dr-ayesha-firdos-family-physician,2025-09-04T23:01:28.420893,20250904_223645,2025-09-05 08:35:42,2025-09-05 08:35:42
244,Abhirami Ramachandran,general-physician,"MBBS, MD - Dermatology , Venereology & Leprosy",5 Years Experience Overall,5,800,4.5,Bangalore,12.956031,77.717035,"http://www.google.com/maps/place/12.956031,77.717035","12.956031,77.717035",1,https://www.practo.com/bangalore/doctor/abhirami-ramachandran-dermatologist,2025-09-04T23:01:36.738326,20250904_223645,2025-09-05 08:35:42,2025-09-05 08:35:42
245,Pradeep.C,general-physician,"MBBS, MD - General Medicine",20 Years Experience Overall,20,400,5.0,Bangalore,13.0620359,77.5106743,"http://www.google.com/maps/place/13.0620359,77.5106743","13.0620359,77.5106743",1,https://www.practo.com/bangalore/doctor/dr-pradeep-c,2025-09-04T23:01:43.268577,20250904_223645,2025-09-05 08:35:42,2025-09-05 08:35:42
246,Haleema Yezdani,general-physician,MBBS,24 Years Experience Overall,24,600,4.3,Bangalore,12.835339746435,77.693793672211,"http://www.google.com/maps/place/12.835339746435,77.693793672211","12.835339746435,77.693793672211",1,https://www.practo.com/bangalore/doctor/dr-haleema-yezdani-general-practitioner,2025-09-04T23:01:51.400369,20250904_223645,2025-09-05 08:35:42,2025-09-05 08:35:42
247,Nandu Nair,general-physician,"MBBS, MD - Respiratory Medicine",6 Years Experience Overall  (2 years as specialist),6,300,5.0,Bangalore,12.903132272784374,77.52387859047728,"http://www.google.com/maps/place/12.903132272784374,77.52387859047728","12.903132272784374,77.52387859047728",1,https://www.practo.com/bangalore/doctor/nandu-nair-pulmonologist,2025-09-04T23:01:59.183169,20250904_223645,2025-09-05 08:35:42,2025-09-05 08:35:42
